{
  "kind": "ExperimentList",
  "arch": {
    "kind": "Architecture",
    "insns": [
      "add RW:GPR:32, R:GPR:32",
      "mov W:GPR:32, dword ptr R:MEM(32)",
      "mov dword ptr W:MEM(32), R:GPR:32",
      "vaddps W:XMM0..15, R:XMM0..15, R:XMM0..15",
      "vbroadcastss W:XMM0..15, R:XMM0..15",
      "vminps W:XMM0..15, R:XMM0..15, R:XMM0..15",
      "vmovapd xmmword ptr W:MEM(128), R:XMM0..15",
      "vpaddd W:XMM0..15, R:XMM0..15, R:XMM0..15",
      "vpaddsw W:XMM0..15, R:XMM0..15, R:XMM0..15",
      "vpor W:XMM0..15, R:XMM0..15, R:XMM0..15",
      "vpslld W:XMM0..15, R:XMM0..15, R:XMM0..15",
      "vroundps W:XMM0..15, R:XMM0..15, IMM(8)"
    ]
  },
  "exps": [
    {
      "kind": "Experiment",
      "iseq": [ "mov dword ptr W:MEM(32), R:GPR:32" ],
      "result": {
        "cycles": 0.999692093615,
        "TP": 39.9876837446,
        "num_uops": 2.0,
        "run_details": [
          {
            "measured_time_usec": 990.88,
            "cycles_per_iteration": 36.5438304793,
            "total_cycles": 1994306.460748,
            "perf_counter_per_iteration": 41.9956938413,
            "total_perf_counter": 2291831,
            "num_iterations": 54573,
            "freq_early_kHz": 2012666.0,
            "freq_late_kHz": 2012666.0,
            "avg_freq_kHz": 2012666.0
          },
          {
            "measured_time_usec": 998.6,
            "cycles_per_iteration": 36.8286566666,
            "total_cycles": 2009850.2802660002,
            "perf_counter_per_iteration": 42.0043061587,
            "total_perf_counter": 2292301,
            "num_iterations": 54573,
            "freq_early_kHz": 2012666.0,
            "freq_late_kHz": 2012666.0,
            "avg_freq_kHz": 2012666.0
          },
          {
            "measured_time_usec": 997.84,
            "cycles_per_iteration": 40.1384481486,
            "total_cycles": 2190475.530815,
            "perf_counter_per_iteration": 42.0043061587,
            "total_perf_counter": 2292301,
            "num_iterations": 54573,
            "freq_early_kHz": 2195215.0,
            "freq_late_kHz": 2195215.0,
            "avg_freq_kHz": 2195215.0
          },
          {
            "measured_time_usec": 994.09,
            "cycles_per_iteration": 39.9876837446,
            "total_cycles": 2182247.8649950004,
            "perf_counter_per_iteration": 42.0,
            "total_perf_counter": 2292066,
            "num_iterations": 54573,
            "freq_early_kHz": 2195215.0,
            "freq_late_kHz": 2195215.0,
            "avg_freq_kHz": 2195215.0
          },
          {
            "measured_time_usec": 989.78,
            "cycles_per_iteration": 39.8400847742,
            "total_cycles": 2172997.74384,
            "perf_counter_per_iteration": 41.9956914728,
            "total_perf_counter": 2290571,
            "num_iterations": 54543,
            "freq_early_kHz": 2195424.0,
            "freq_late_kHz": 2195424.0,
            "avg_freq_kHz": 2195424.0
          },
          {
            "measured_time_usec": 997.77,
            "cycles_per_iteration": 40.1394133451,
            "total_cycles": 2190528.20448,
            "perf_counter_per_iteration": 42.0043061587,
            "total_perf_counter": 2292301,
            "num_iterations": 54573,
            "freq_early_kHz": 2195424.0,
            "freq_late_kHz": 2195424.0,
            "avg_freq_kHz": 2195424.0
          },
          {
            "measured_time_usec": 998.3,
            "cycles_per_iteration": 40.1539736701,
            "total_cycles": 2191322.8051,
            "perf_counter_per_iteration": 42.0043061587,
            "total_perf_counter": 2292301,
            "num_iterations": 54573,
            "freq_early_kHz": 2195050.0,
            "freq_late_kHz": 2195050.0,
            "avg_freq_kHz": 2195050.0
          },
          {
            "measured_time_usec": 994.02,
            "cycles_per_iteration": 39.9840605855,
            "total_cycles": 2181930.1861499995,
            "perf_counter_per_iteration": 42.0,
            "total_perf_counter": 2291940,
            "num_iterations": 54570,
            "freq_early_kHz": 2195050.0,
            "freq_late_kHz": 2195050.0,
            "avg_freq_kHz": 2195050.0
          },
          {
            "measured_time_usec": 991.14,
            "cycles_per_iteration": 39.8705251982,
            "total_cycles": 2175854.1716420003,
            "perf_counter_per_iteration": 41.9956938413,
            "total_perf_counter": 2291831,
            "num_iterations": 54573,
            "freq_early_kHz": 2195309.0,
            "freq_late_kHz": 2195309.0,
            "avg_freq_kHz": 2195309.0
          },
          {
            "measured_time_usec": 1000.54,
            "cycles_per_iteration": 40.2485384772,
            "total_cycles": 2196483.490315,
            "perf_counter_per_iteration": 42.0043061587,
            "total_perf_counter": 2292301,
            "num_iterations": 54573,
            "freq_early_kHz": 2195309.0,
            "freq_late_kHz": 2195309.0,
            "avg_freq_kHz": 2195309.0
          },
          {
            "measured_time_usec": 998.22,
            "cycles_per_iteration": 40.16200151,
            "total_cycles": 2191760.908407,
            "perf_counter_per_iteration": 42.0043061587,
            "total_perf_counter": 2292301,
            "num_iterations": 54573,
            "freq_early_kHz": 2195667.0,
            "freq_late_kHz": 2195667.0,
            "avg_freq_kHz": 2195667.0
          }
        ],
        "rt": 0.08561878837645054,
        "num_uops_increased_by": 1
      }
    },
    {
      "kind": "Experiment",
      "iseq": [ "vmovapd xmmword ptr W:MEM(128), R:XMM0..15" ],
      "result": {
        "cycles": 0.9998364541425,
        "TP": 39.9934581657,
        "num_uops": 2.0,
        "run_details": [
          {
            "measured_time_usec": 993.54,
            "cycles_per_iteration": 38.8929168317,
            "total_cycles": 2121336.36275,
            "perf_counter_per_iteration": 42.0,
            "total_perf_counter": 2290806,
            "num_iterations": 54543,
            "freq_early_kHz": 2135125.0,
            "freq_late_kHz": 2135125.0,
            "avg_freq_kHz": 2135125.0
          },
          {
            "measured_time_usec": 1008.01,
            "cycles_per_iteration": 39.4397926768,
            "total_cycles": 2152229.486375,
            "perf_counter_per_iteration": 42.0043063955,
            "total_perf_counter": 2292175,
            "num_iterations": 54570,
            "freq_early_kHz": 2135125.0,
            "freq_late_kHz": 2135125.0,
            "avg_freq_kHz": 2135125.0
          },
          {
            "measured_time_usec": 997.78,
            "cycles_per_iteration": 40.1366562672,
            "total_cycles": 2190377.7424689997,
            "perf_counter_per_iteration": 42.0043061587,
            "total_perf_counter": 2292301,
            "num_iterations": 54573,
            "freq_early_kHz": 2195249.0,
            "freq_late_kHz": 2195249.0,
            "avg_freq_kHz": 2195249.0
          },
          {
            "measured_time_usec": 994.09,
            "cycles_per_iteration": 39.9883433091,
            "total_cycles": 2182283.859406,
            "perf_counter_per_iteration": 42.0,
            "total_perf_counter": 2292066,
            "num_iterations": 54573,
            "freq_early_kHz": 2195249.0,
            "freq_late_kHz": 2195249.0,
            "avg_freq_kHz": 2195249.0
          },
          {
            "measured_time_usec": 990.05,
            "cycles_per_iteration": 39.8303123929,
            "total_cycles": 2173659.63822,
            "perf_counter_per_iteration": 41.9956938413,
            "total_perf_counter": 2291831,
            "num_iterations": 54573,
            "freq_early_kHz": 2195516.0,
            "freq_late_kHz": 2195516.0,
            "avg_freq_kHz": 2195516.0
          },
          {
            "measured_time_usec": 998.28,
            "cycles_per_iteration": 40.1859535753,
            "total_cycles": 2191741.9079960003,
            "perf_counter_per_iteration": 42.0043087642,
            "total_perf_counter": 2290915,
            "num_iterations": 54540,
            "freq_early_kHz": 2195516.0,
            "freq_late_kHz": 2195516.0,
            "avg_freq_kHz": 2195516.0
          },
          {
            "measured_time_usec": 1002.01,
            "cycles_per_iteration": 40.3118873482,
            "total_cycles": 2199940.628256,
            "perf_counter_per_iteration": 42.0043061587,
            "total_perf_counter": 2292301,
            "num_iterations": 54573,
            "freq_early_kHz": 2195532.0,
            "freq_late_kHz": 2195532.0,
            "avg_freq_kHz": 2195532.0
          },
          {
            "measured_time_usec": 994.09,
            "cycles_per_iteration": 39.9934581657,
            "total_cycles": 2182562.9924760005,
            "perf_counter_per_iteration": 42.0,
            "total_perf_counter": 2292066,
            "num_iterations": 54573,
            "freq_early_kHz": 2195532.0,
            "freq_late_kHz": 2195532.0,
            "avg_freq_kHz": 2195532.0
          },
          {
            "measured_time_usec": 990.0,
            "cycles_per_iteration": 39.8288490247,
            "total_cycles": 2173579.777824,
            "perf_counter_per_iteration": 41.9956938413,
            "total_perf_counter": 2291831,
            "num_iterations": 54573,
            "freq_early_kHz": 2195544.0,
            "freq_late_kHz": 2195544.0,
            "avg_freq_kHz": 2195544.0
          },
          {
            "measured_time_usec": 997.42,
            "cycles_per_iteration": 40.127526368,
            "total_cycles": 2189879.49648,
            "perf_counter_per_iteration": 42.0043061587,
            "total_perf_counter": 2292301,
            "num_iterations": 54573,
            "freq_early_kHz": 2195544.0,
            "freq_late_kHz": 2195544.0,
            "avg_freq_kHz": 2195544.0
          },
          {
            "measured_time_usec": 997.52,
            "cycles_per_iteration": 40.1343790119,
            "total_cycles": 2190253.4658190003,
            "perf_counter_per_iteration": 42.0043061587,
            "total_perf_counter": 2292301,
            "num_iterations": 54573,
            "freq_early_kHz": 2195701.0,
            "freq_late_kHz": 2195701.0,
            "avg_freq_kHz": 2195701.0
          }
        ],
        "rt": 0.08709334582090378,
        "num_uops_increased_by": 1
      }
    },
    {
      "kind": "Experiment",
      "iseq": [
        "mov dword ptr W:MEM(32), R:GPR:32",
        "vroundps W:XMM0..15, R:XMM0..15, IMM(8)"
      ],
      "result": {
        "cycles": 0.999999441095,
        "TP": 19.9999888219,
        "num_uops": 3.0,
        "run_details": [
          {
            "measured_time_usec": 988.16,
            "cycles_per_iteration": 19.0569038608,
            "total_cycles": 2067578.7843759998,
            "perf_counter_per_iteration": 42.0,
            "total_perf_counter": 4556790,
            "num_iterations": 108495,
            "freq_early_kHz": 2092348.0,
            "freq_late_kHz": 2092348.0,
            "avg_freq_kHz": 2092348.0
          },
          {
            "measured_time_usec": 635.72,
            "cycles_per_iteration": 19.0569801594,
            "total_cycles": 1330139.1011679997,
            "perf_counter_per_iteration": 42.0,
            "total_perf_counter": 2931516,
            "num_iterations": 69798,
            "freq_early_kHz": 2092348.0,
            "freq_late_kHz": 2092348.0,
            "avg_freq_kHz": 2092348.0
          },
          {
            "measured_time_usec": 984.39,
            "cycles_per_iteration": 19.4522013861,
            "total_cycles": 2110466.5893875,
            "perf_counter_per_iteration": 41.9978340016,
            "total_perf_counter": 4556555,
            "num_iterations": 108495,
            "freq_early_kHz": 2092348.0,
            "freq_late_kHz": 2195497.0,
            "avg_freq_kHz": 2143922.5,
            "discarded": True
          },
          {
            "measured_time_usec": 992.45,
            "cycles_per_iteration": 20.083187139,
            "total_cycles": 2178925.3886439996,
            "perf_counter_per_iteration": 42.0021659984,
            "total_perf_counter": 4557025,
            "num_iterations": 108495,
            "freq_early_kHz": 2195497.0,
            "freq_late_kHz": 2195497.0,
            "avg_freq_kHz": 2195497.0
          },
          {
            "measured_time_usec": 991.73,
            "cycles_per_iteration": 20.0685565631,
            "total_cycles": 2177338.0443129996,
            "perf_counter_per_iteration": 42.0021659984,
            "total_perf_counter": 4557025,
            "num_iterations": 108495,
            "freq_early_kHz": 2195497.0,
            "freq_late_kHz": 2195497.0,
            "avg_freq_kHz": 2195497.0
          },
          {
            "measured_time_usec": 988.05,
            "cycles_per_iteration": 19.997963727,
            "total_cycles": 2169439.098996,
            "perf_counter_per_iteration": 42.0,
            "total_perf_counter": 4556286,
            "num_iterations": 108483,
            "freq_early_kHz": 2195673.0,
            "freq_late_kHz": 2195673.0,
            "avg_freq_kHz": 2195673.0
          },
          {
            "measured_time_usec": 985.62,
            "cycles_per_iteration": 19.9464734342,
            "total_cycles": 2164092.6352409995,
            "perf_counter_per_iteration": 41.9978340016,
            "total_perf_counter": 4556555,
            "num_iterations": 108495,
            "freq_early_kHz": 2195673.0,
            "freq_late_kHz": 2195673.0,
            "avg_freq_kHz": 2195673.0
          },
          {
            "measured_time_usec": 994.53,
            "cycles_per_iteration": 20.1280454147,
            "total_cycles": 2183792.287263,
            "perf_counter_per_iteration": 42.0021659984,
            "total_perf_counter": 4557025,
            "num_iterations": 108495,
            "freq_early_kHz": 2195673.0,
            "freq_late_kHz": 2195916.0,
            "avg_freq_kHz": 2195794.5
          },
          {
            "measured_time_usec": 991.8,
            "cycles_per_iteration": 20.0738033355,
            "total_cycles": 2177907.2928839996,
            "perf_counter_per_iteration": 42.0021659984,
            "total_perf_counter": 4557025,
            "num_iterations": 108495,
            "freq_early_kHz": 2195916.0,
            "freq_late_kHz": 2195916.0,
            "avg_freq_kHz": 2195916.0
          },
          {
            "measured_time_usec": 988.15,
            "cycles_per_iteration": 19.9999888219,
            "total_cycles": 2169898.787232,
            "perf_counter_per_iteration": 42.0,
            "total_perf_counter": 4556790,
            "num_iterations": 108495,
            "freq_early_kHz": 2195916.0,
            "freq_late_kHz": 2195916.0,
            "avg_freq_kHz": 2195916.0
          },
          {
            "measured_time_usec": 984.36,
            "cycles_per_iteration": 19.925144636,
            "total_cycles": 2161539.4655519994,
            "perf_counter_per_iteration": 41.997833762,
            "total_perf_counter": 4556051,
            "num_iterations": 108483,
            "freq_early_kHz": 2195892.0,
            "freq_late_kHz": 2195892.0,
            "avg_freq_kHz": 2195892.0
          }
        ],
        "rt": 0.0844865683466196,
        "num_uops_increased_by": 1
      }
    },
    {
      "kind": "Experiment",
      "iseq": [
        "vmovapd xmmword ptr W:MEM(128), R:XMM0..15",
        "vpaddsw W:XMM0..15, R:XMM0..15, R:XMM0..15"
      ],
      "result": {
        "cycles": 0.9998281909419999,
        "TP": 99.9828190942,
        "num_uops": 3.0,
        "run_details": [
          {
            "measured_time_usec": 1004.45,
            "cycles_per_iteration": 100.6097883316,
            "total_cycles": 2203656.193828,
            "perf_counter_per_iteration": 202.0107291239,
            "total_perf_counter": 4424641,
            "num_iterations": 21903,
            "freq_early_kHz": 2193889.0,
            "freq_late_kHz": 2193889.0,
            "avg_freq_kHz": 2193889.0
          },
          {
            "measured_time_usec": 1001.03,
            "cycles_per_iteration": 100.267528426,
            "total_cycles": 2196159.675115,
            "perf_counter_per_iteration": 202.0107291239,
            "total_perf_counter": 4424641,
            "num_iterations": 21903,
            "freq_early_kHz": 2193889.0,
            "freq_late_kHz": 2193889.0,
            "avg_freq_kHz": 2193889.0
          },
          {
            "measured_time_usec": 997.68,
            "cycles_per_iteration": 99.9828190942,
            "total_cycles": 2190423.600715,
            "perf_counter_per_iteration": 202.0,
            "total_perf_counter": 4425416,
            "num_iterations": 21908,
            "freq_early_kHz": 2195515.0,
            "freq_late_kHz": 2195515.0,
            "avg_freq_kHz": 2195515.0
          },
          {
            "measured_time_usec": 984.26,
            "cycles_per_iteration": 98.6418321233,
            "total_cycles": 2160946.6163250003,
            "perf_counter_per_iteration": 201.9892728352,
            "total_perf_counter": 4424979,
            "num_iterations": 21907,
            "freq_early_kHz": 2195515.0,
            "freq_late_kHz": 2195515.0,
            "avg_freq_kHz": 2195515.0
          },
          {
            "measured_time_usec": 1001.95,
            "cycles_per_iteration": 100.3951251562,
            "total_cycles": 2199456.401922,
            "perf_counter_per_iteration": 202.0107266752,
            "total_perf_counter": 4425651,
            "num_iterations": 21908,
            "freq_early_kHz": 2195178.0,
            "freq_late_kHz": 2195178.0,
            "avg_freq_kHz": 2195178.0
          },
          {
            "measured_time_usec": 997.63,
            "cycles_per_iteration": 99.9668248944,
            "total_cycles": 2189973.2329619997,
            "perf_counter_per_iteration": 202.0,
            "total_perf_counter": 4425214,
            "num_iterations": 21907,
            "freq_early_kHz": 2195178.0,
            "freq_late_kHz": 2195178.0,
            "avg_freq_kHz": 2195178.0
          },
          {
            "measured_time_usec": 993.4,
            "cycles_per_iteration": 99.5383185732,
            "total_cycles": 2180685.483301,
            "perf_counter_per_iteration": 201.9892733248,
            "total_perf_counter": 4425181,
            "num_iterations": 21908,
            "freq_early_kHz": 2195167.0,
            "freq_late_kHz": 2195167.0,
            "avg_freq_kHz": 2195167.0
          },
          {
            "measured_time_usec": 1001.65,
            "cycles_per_iteration": 100.3644620785,
            "total_cycles": 2198784.635216,
            "perf_counter_per_iteration": 202.0107266752,
            "total_perf_counter": 4425651,
            "num_iterations": 21908,
            "freq_early_kHz": 2195167.0,
            "freq_late_kHz": 2195167.0,
            "avg_freq_kHz": 2195167.0
          },
          {
            "measured_time_usec": 1006.11,
            "cycles_per_iteration": 100.85470772,
            "total_cycles": 2208919.808484,
            "perf_counter_per_iteration": 202.0107296137,
            "total_perf_counter": 4424439,
            "num_iterations": 21902,
            "freq_early_kHz": 2195514.0,
            "freq_late_kHz": 2195514.0,
            "avg_freq_kHz": 2195514.0
          },
          {
            "measured_time_usec": 997.45,
            "cycles_per_iteration": 99.9824425558,
            "total_cycles": 2189915.4393,
            "perf_counter_per_iteration": 202.0,
            "total_perf_counter": 4424406,
            "num_iterations": 21903,
            "freq_early_kHz": 2195514.0,
            "freq_late_kHz": 2195514.0,
            "avg_freq_kHz": 2195514.0
          },
          {
            "measured_time_usec": 993.49,
            "cycles_per_iteration": 99.5670988981,
            "total_cycles": 2181316.0026599998,
            "perf_counter_per_iteration": 201.9892733248,
            "total_perf_counter": 4425181,
            "num_iterations": 21908,
            "freq_early_kHz": 2195605.0,
            "freq_late_kHz": 2195605.0,
            "avg_freq_kHz": 2195605.0
          }
        ],
        "rt": 0.07080217264592648,
        "num_uops_increased_by": 1
      }
    },
    {
      "kind": "Experiment",
      "iseq": [
        "mov dword ptr W:MEM(32), R:GPR:32",
        "vpslld W:XMM0..15, R:XMM0..15, R:XMM0..15"
      ],
      "result": {
        "cycles": 0.99988735806,
        "TP": 19.9977471612,
        "num_uops": 3.0,
        "run_details": [
          {
            "measured_time_usec": 988.06,
            "cycles_per_iteration": 19.6391399563,
            "total_cycles": 2130512.819876,
            "perf_counter_per_iteration": 42.0,
            "total_perf_counter": 4556286,
            "num_iterations": 108483,
            "freq_early_kHz": 2156252.0,
            "freq_late_kHz": 2156252.0,
            "avg_freq_kHz": 2156252.0
          },
          {
            "measured_time_usec": 993.79,
            "cycles_per_iteration": 19.750866861,
            "total_cycles": 2142870.300088,
            "perf_counter_per_iteration": 42.0021659984,
            "total_perf_counter": 4557025,
            "num_iterations": 108495,
            "freq_early_kHz": 2156252.0,
            "freq_late_kHz": 2156252.0,
            "avg_freq_kHz": 2156252.0
          },
          {
            "measured_time_usec": 992.42,
            "cycles_per_iteration": 20.0861535115,
            "total_cycles": 2179006.191387,
            "perf_counter_per_iteration": 42.002166238,
            "total_perf_counter": 4556521,
            "num_iterations": 108483,
            "freq_early_kHz": 2195647.0,
            "freq_late_kHz": 2195647.0,
            "avg_freq_kHz": 2195647.0
          },
          {
            "measured_time_usec": 988.05,
            "cycles_per_iteration": 19.9977471612,
            "total_cycles": 2169415.605291,
            "perf_counter_per_iteration": 42.0,
            "total_perf_counter": 4556286,
            "num_iterations": 108483,
            "freq_early_kHz": 2195647.0,
            "freq_late_kHz": 2195647.0,
            "avg_freq_kHz": 2195647.0
          },
          {
            "measured_time_usec": 988.05,
            "cycles_per_iteration": 19.9959417738,
            "total_cycles": 2169219.751452,
            "perf_counter_per_iteration": 42.0,
            "total_perf_counter": 4556286,
            "num_iterations": 108483,
            "freq_early_kHz": 2195451.0,
            "freq_late_kHz": 2195451.0,
            "avg_freq_kHz": 2195451.0
          },
          {
            "measured_time_usec": 988.15,
            "cycles_per_iteration": 19.9957739251,
            "total_cycles": 2169441.492003,
            "perf_counter_per_iteration": 42.0,
            "total_perf_counter": 4556790,
            "num_iterations": 108495,
            "freq_early_kHz": 2195451.0,
            "freq_late_kHz": 2195451.0,
            "avg_freq_kHz": 2195451.0
          },
          {
            "measured_time_usec": 992.39,
            "cycles_per_iteration": 20.0847824759,
            "total_cycles": 2178857.4573285,
            "perf_counter_per_iteration": 42.002166238,
            "total_perf_counter": 4556521,
            "num_iterations": 108483,
            "freq_early_kHz": 2195451.0,
            "freq_late_kHz": 2195676.0,
            "avg_freq_kHz": 2195563.5
          },
          {
            "measured_time_usec": 988.15,
            "cycles_per_iteration": 19.9978231847,
            "total_cycles": 2169663.826428,
            "perf_counter_per_iteration": 42.0,
            "total_perf_counter": 4556790,
            "num_iterations": 108495,
            "freq_early_kHz": 2195676.0,
            "freq_late_kHz": 2195676.0,
            "avg_freq_kHz": 2195676.0
          },
          {
            "measured_time_usec": 988.15,
            "cycles_per_iteration": 19.9978231847,
            "total_cycles": 2169663.826428,
            "perf_counter_per_iteration": 42.0,
            "total_perf_counter": 4556790,
            "num_iterations": 108495,
            "freq_early_kHz": 2195676.0,
            "freq_late_kHz": 2195676.0,
            "avg_freq_kHz": 2195676.0
          },
          {
            "measured_time_usec": 984.57,
            "cycles_per_iteration": 19.9261929178,
            "total_cycles": 2161892.300612,
            "perf_counter_per_iteration": 41.9978340016,
            "total_perf_counter": 4556555,
            "num_iterations": 108495,
            "freq_early_kHz": 2195782.0,
            "freq_late_kHz": 2195782.0,
            "avg_freq_kHz": 2195782.0
          },
          {
            "measured_time_usec": 991.55,
            "cycles_per_iteration": 20.0675389843,
            "total_cycles": 2177227.6421,
            "perf_counter_per_iteration": 42.0021659984,
            "total_perf_counter": 4557025,
            "num_iterations": 108495,
            "freq_early_kHz": 2195782.0,
            "freq_late_kHz": 2195782.0,
            "avg_freq_kHz": 2195782.0
          }
        ],
        "rt": 0.0870384443551302,
        "num_uops_increased_by": 1
      }
    },
    {
      "kind": "Experiment",
      "iseq": [
        "vbroadcastss W:XMM0..15, R:XMM0..15",
        "vmovapd xmmword ptr W:MEM(128), R:XMM0..15"
      ],
      "result": {
        "cycles": 0.9998453605450001,
        "TP": 19.9969072109,
        "num_uops": 3.0,
        "run_details": [
          {
            "measured_time_usec": 988.15,
            "cycles_per_iteration": 18.3668671562,
            "total_cycles": 1992713.2521119998,
            "perf_counter_per_iteration": 42.0,
            "total_perf_counter": 4556790,
            "num_iterations": 108495,
            "freq_early_kHz": 2016606.0,
            "freq_late_kHz": 2016606.0,
            "avg_freq_kHz": 2016606.0
          },
          {
            "measured_time_usec": 975.77,
            "cycles_per_iteration": 18.1367032583,
            "total_cycles": 1967741.620014,
            "perf_counter_per_iteration": 41.9978340016,
            "total_perf_counter": 4556555,
            "num_iterations": 108495,
            "freq_early_kHz": 2016606.0,
            "freq_late_kHz": 2016606.0,
            "avg_freq_kHz": 2016606.0
          },
          {
            "measured_time_usec": 991.01,
            "cycles_per_iteration": 20.0785800666,
            "total_cycles": 2175815.32892,
            "perf_counter_per_iteration": 42.0021685969,
            "total_perf_counter": 4551565,
            "num_iterations": 108365,
            "freq_early_kHz": 2195560.0,
            "freq_late_kHz": 2195560.0,
            "avg_freq_kHz": 2195560.0
          },
          {
            "measured_time_usec": 987.08,
            "cycles_per_iteration": 19.9968015797,
            "total_cycles": 2167193.3647999996,
            "perf_counter_per_iteration": 42.0,
            "total_perf_counter": 4551834,
            "num_iterations": 108377,
            "freq_early_kHz": 2195560.0,
            "freq_late_kHz": 2195560.0,
            "avg_freq_kHz": 2195560.0
          },
          {
            "measured_time_usec": 988.05,
            "cycles_per_iteration": 19.9969072109,
            "total_cycles": 2169324.4849639996,
            "perf_counter_per_iteration": 42.0,
            "total_perf_counter": 4556286,
            "num_iterations": 108483,
            "freq_early_kHz": 2195560.0,
            "freq_late_kHz": 2195554.0,
            "avg_freq_kHz": 2195557.0
          },
          {
            "measured_time_usec": 640.63,
            "cycles_per_iteration": 19.9969652426,
            "total_cycles": 1406546.541236,
            "perf_counter_per_iteration": 42.0,
            "total_perf_counter": 2954196,
            "num_iterations": 70338,
            "freq_early_kHz": 2195554.0,
            "freq_late_kHz": 2195554.0,
            "avg_freq_kHz": 2195554.0
          },
          {
            "measured_time_usec": 985.49,
            "cycles_per_iteration": 19.9427818826,
            "total_cycles": 2163692.1203519995,
            "perf_counter_per_iteration": 41.9978340016,
            "total_perf_counter": 4556555,
            "num_iterations": 108495,
            "freq_early_kHz": 2195554.0,
            "freq_late_kHz": 2195554.0,
            "avg_freq_kHz": 2195554.0
          },
          {
            "measured_time_usec": 994.29,
            "cycles_per_iteration": 20.1221525541,
            "total_cycles": 2183152.941361,
            "perf_counter_per_iteration": 42.0021659984,
            "total_perf_counter": 4557025,
            "num_iterations": 108495,
            "freq_early_kHz": 2195554.0,
            "freq_late_kHz": 2195809.0,
            "avg_freq_kHz": 2195681.5
          },
          {
            "measured_time_usec": 991.89,
            "cycles_per_iteration": 20.0746466952,
            "total_cycles": 2177998.7932010004,
            "perf_counter_per_iteration": 42.0021659984,
            "total_perf_counter": 4557025,
            "num_iterations": 108495,
            "freq_early_kHz": 2195809.0,
            "freq_late_kHz": 2195809.0,
            "avg_freq_kHz": 2195809.0
          },
          {
            "measured_time_usec": 987.09,
            "cycles_per_iteration": 19.999312561,
            "total_cycles": 2167465.4974279995,
            "perf_counter_per_iteration": 42.0,
            "total_perf_counter": 4551834,
            "num_iterations": 108377,
            "freq_early_kHz": 2195809.0,
            "freq_late_kHz": 2195809.0,
            "avg_freq_kHz": 2195809.0
          },
          {
            "measured_time_usec": 984.55,
            "cycles_per_iteration": 19.9259430697,
            "total_cycles": 2161865.1933449996,
            "perf_counter_per_iteration": 41.9978340016,
            "total_perf_counter": 4556555,
            "num_iterations": 108495,
            "freq_early_kHz": 2195779.0,
            "freq_late_kHz": 2195779.0,
            "avg_freq_kHz": 2195779.0
          }
        ],
        "rt": 0.08455024845898151,
        "num_uops_increased_by": 1
      }
    },
    {
      "kind": "Experiment",
      "iseq": [
        "mov dword ptr W:MEM(32), R:GPR:32",
        "vaddps W:XMM0..15, R:XMM0..15, R:XMM0..15"
      ],
      "result": {
        "cycles": 0.9998404210149999,
        "TP": 39.9936168406,
        "num_uops": 3.0,
        "run_details": [
          {
            "measured_time_usec": 993.54,
            "cycles_per_iteration": 39.9713989037,
            "total_cycles": 2180160.010402,
            "perf_counter_per_iteration": 82.0,
            "total_perf_counter": 4472526,
            "num_iterations": 54543,
            "freq_early_kHz": 2194331.0,
            "freq_late_kHz": 2194331.0,
            "avg_freq_kHz": 2194331.0
          },
          {
            "measured_time_usec": 832.6,
            "cycles_per_iteration": 39.7745543445,
            "total_cycles": 1827004.3792619999,
            "perf_counter_per_iteration": 81.9948839639,
            "total_perf_counter": 3766353,
            "num_iterations": 45934,
            "freq_early_kHz": 2194331.0,
            "freq_late_kHz": 2194331.0,
            "avg_freq_kHz": 2194331.0
          },
          {
            "measured_time_usec": 997.4,
            "cycles_per_iteration": 40.1364673377,
            "total_cycles": 2189163.338,
            "perf_counter_per_iteration": 82.0043085272,
            "total_perf_counter": 4472761,
            "num_iterations": 54543,
            "freq_early_kHz": 2194331.0,
            "freq_late_kHz": 2195409.0,
            "avg_freq_kHz": 2194870.0
          },
          {
            "measured_time_usec": 1007.05,
            "cycles_per_iteration": 40.5123823618,
            "total_cycles": 2210882.242632,
            "perf_counter_per_iteration": 82.0043061587,
            "total_perf_counter": 4475221,
            "num_iterations": 54573,
            "freq_early_kHz": 2195409.0,
            "freq_late_kHz": 2195409.0,
            "avg_freq_kHz": 2195409.0
          },
          {
            "measured_time_usec": 993.54,
            "cycles_per_iteration": 39.9927151597,
            "total_cycles": 2181322.6629569996,
            "perf_counter_per_iteration": 82.0,
            "total_perf_counter": 4472526,
            "num_iterations": 54543,
            "freq_early_kHz": 2195409.0,
            "freq_late_kHz": 2195589.0,
            "avg_freq_kHz": 2195499.0
          },
          {
            "measured_time_usec": 990.41,
            "cycles_per_iteration": 39.8483913272,
            "total_cycles": 2174526.714723,
            "perf_counter_per_iteration": 81.9956936045,
            "total_perf_counter": 4474505,
            "num_iterations": 54570,
            "freq_early_kHz": 2195589.0,
            "freq_late_kHz": 2195589.0,
            "avg_freq_kHz": 2195589.0
          },
          {
            "measured_time_usec": 998.16,
            "cycles_per_iteration": 40.15956373,
            "total_cycles": 2191507.3927450003,
            "perf_counter_per_iteration": 82.0043063955,
            "total_perf_counter": 4474975,
            "num_iterations": 54570,
            "freq_early_kHz": 2195589.0,
            "freq_late_kHz": 2195501.0,
            "avg_freq_kHz": 2195545.0
          },
          {
            "measured_time_usec": 998.62,
            "cycles_per_iteration": 40.1750975688,
            "total_cycles": 2192475.599622,
            "perf_counter_per_iteration": 82.0043061587,
            "total_perf_counter": 4475221,
            "num_iterations": 54573,
            "freq_early_kHz": 2195501.0,
            "freq_late_kHz": 2195501.0,
            "avg_freq_kHz": 2195501.0
          },
          {
            "measured_time_usec": 993.54,
            "cycles_per_iteration": 39.9936168406,
            "total_cycles": 2181371.8433355,
            "perf_counter_per_iteration": 82.0,
            "total_perf_counter": 4472526,
            "num_iterations": 54543,
            "freq_early_kHz": 2195501.0,
            "freq_late_kHz": 2195596.0,
            "avg_freq_kHz": 2195548.5
          },
          {
            "measured_time_usec": 989.28,
            "cycles_per_iteration": 39.8008251057,
            "total_cycles": 2172050.4284960004,
            "perf_counter_per_iteration": 81.9956938413,
            "total_perf_counter": 4474751,
            "num_iterations": 54573,
            "freq_early_kHz": 2195596.0,
            "freq_late_kHz": 2195596.0,
            "avg_freq_kHz": 2195596.0
          },
          {
            "measured_time_usec": 998.19,
            "cycles_per_iteration": 40.1599933526,
            "total_cycles": 2191651.3172319997,
            "perf_counter_per_iteration": 82.0043061587,
            "total_perf_counter": 4475221,
            "num_iterations": 54573,
            "freq_early_kHz": 2195596.0,
            "freq_late_kHz": 2195646.0,
            "avg_freq_kHz": 2195621.0
          }
        ],
        "rt": 0.06913233175873756,
        "num_uops_increased_by": 1
      }
    },
    {
      "kind": "Experiment",
      "iseq": [
        "vmovapd xmmword ptr W:MEM(128), R:XMM0..15",
        "vroundps W:XMM0..15, R:XMM0..15, IMM(8)"
      ],
      "result": {
        "cycles": 0.999820143865,
        "TP": 19.9964028773,
        "num_uops": 3.0,
        "run_details": [
          {
            "measured_time_usec": 988.05,
            "cycles_per_iteration": 18.9890819664,
            "total_cycles": 2059992.5789559998,
            "perf_counter_per_iteration": 42.0,
            "total_perf_counter": 4556286,
            "num_iterations": 108483,
            "freq_early_kHz": 2084903.0,
            "freq_late_kHz": 2084903.0,
            "avg_freq_kHz": 2084903.0
          },
          {
            "measured_time_usec": 984.29,
            "cycles_per_iteration": 18.9167043155,
            "total_cycles": 2052140.834258,
            "perf_counter_per_iteration": 41.997833762,
            "total_perf_counter": 4556051,
            "num_iterations": 108483,
            "freq_early_kHz": 2084903.0,
            "freq_late_kHz": 2084903.0,
            "avg_freq_kHz": 2084903.0
          },
          {
            "measured_time_usec": 993.23,
            "cycles_per_iteration": 20.1011211936,
            "total_cycles": 2180629.930448,
            "perf_counter_per_iteration": 42.002166238,
            "total_perf_counter": 4556521,
            "num_iterations": 108483,
            "freq_early_kHz": 2195489.0,
            "freq_late_kHz": 2195489.0,
            "avg_freq_kHz": 2195489.0
          },
          {
            "measured_time_usec": 988.15,
            "cycles_per_iteration": 19.9960997864,
            "total_cycles": 2169476.846328,
            "perf_counter_per_iteration": 42.0,
            "total_perf_counter": 4556790,
            "num_iterations": 108495,
            "freq_early_kHz": 2195489.0,
            "freq_late_kHz": 2195489.0,
            "avg_freq_kHz": 2195489.0
          },
          {
            "measured_time_usec": 987.08,
            "cycles_per_iteration": 19.9964028773,
            "total_cycles": 2167150.154634,
            "perf_counter_per_iteration": 42.0,
            "total_perf_counter": 4551834,
            "num_iterations": 108377,
            "freq_early_kHz": 2195489.0,
            "freq_late_kHz": 2195539.0,
            "avg_freq_kHz": 2195514.0
          },
          {
            "measured_time_usec": 983.98,
            "cycles_per_iteration": 19.9120483254,
            "total_cycles": 2160357.6830639997,
            "perf_counter_per_iteration": 41.9978340016,
            "total_perf_counter": 4556555,
            "num_iterations": 108495,
            "freq_early_kHz": 2195539.0,
            "freq_late_kHz": 2195539.0,
            "avg_freq_kHz": 2195539.0
          },
          {
            "measured_time_usec": 991.45,
            "cycles_per_iteration": 20.0654733965,
            "total_cycles": 2176762.7504720003,
            "perf_counter_per_iteration": 42.002166238,
            "total_perf_counter": 4556521,
            "num_iterations": 108483,
            "freq_early_kHz": 2195539.0,
            "freq_late_kHz": 2195539.0,
            "avg_freq_kHz": 2195539.0
          },
          {
            "measured_time_usec": 988.17,
            "cycles_per_iteration": 19.9995010341,
            "total_cycles": 2169845.864696,
            "perf_counter_per_iteration": 42.0,
            "total_perf_counter": 4556790,
            "num_iterations": 108495,
            "freq_early_kHz": 2195818.0,
            "freq_late_kHz": 2195818.0,
            "avg_freq_kHz": 2195818.0
          },
          {
            "measured_time_usec": 988.16,
            "cycles_per_iteration": 19.9992986452,
            "total_cycles": 2169823.9065159997,
            "perf_counter_per_iteration": 42.0,
            "total_perf_counter": 4556790,
            "num_iterations": 108495,
            "freq_early_kHz": 2195818.0,
            "freq_late_kHz": 2195818.0,
            "avg_freq_kHz": 2195818.0
          },
          {
            "measured_time_usec": 681.47,
            "cycles_per_iteration": 19.9993367874,
            "total_cycles": 1496390.377104,
            "perf_counter_per_iteration": 42.0,
            "total_perf_counter": 3142524,
            "num_iterations": 74822,
            "freq_early_kHz": 2195818.0,
            "freq_late_kHz": 2195830.0,
            "avg_freq_kHz": 2195824.0
          },
          {
            "measured_time_usec": 984.62,
            "cycles_per_iteration": 19.9276202171,
            "total_cycles": 2162047.15545,
            "perf_counter_per_iteration": 41.9978340016,
            "total_perf_counter": 4556555,
            "num_iterations": 108495,
            "freq_early_kHz": 2195830.0,
            "freq_late_kHz": 2195830.0,
            "avg_freq_kHz": 2195830.0
          }
        ],
        "rt": 0.08601437509059906,
        "num_uops_increased_by": 1
      }
    },
    {
      "kind": "Experiment",
      "iseq": [
        "vpslld W:XMM0..15, R:XMM0..15, R:XMM0..15",
        "vroundps W:XMM0..15, R:XMM0..15, IMM(8)"
      ],
      "result": {
        "cycles": 0.9998115023224999,
        "TP": 39.9924600929,
        "num_uops": 2.0,
        "run_details": [
          {
            "measured_time_usec": 994.08,
            "cycles_per_iteration": 39.9554442867,
            "total_cycles": 2180488.46106,
            "perf_counter_per_iteration": 82.0,
            "total_perf_counter": 4474986,
            "num_iterations": 54573,
            "freq_early_kHz": 2193465.0,
            "freq_late_kHz": 2193465.0,
            "avg_freq_kHz": 2193465.0
          },
          {
            "measured_time_usec": 991.0,
            "cycles_per_iteration": 39.8094836292,
            "total_cycles": 2173717.2346049994,
            "perf_counter_per_iteration": 81.9956962072,
            "total_perf_counter": 4477211,
            "num_iterations": 54603,
            "freq_early_kHz": 2193465.0,
            "freq_late_kHz": 2193465.0,
            "avg_freq_kHz": 2193465.0
          },
          {
            "measured_time_usec": 997.74,
            "cycles_per_iteration": 40.1381333407,
            "total_cycles": 2190458.3508,
            "perf_counter_per_iteration": 82.0043061587,
            "total_perf_counter": 4475221,
            "num_iterations": 54573,
            "freq_early_kHz": 2195420.0,
            "freq_late_kHz": 2195420.0,
            "avg_freq_kHz": 2195420.0
          },
          {
            "measured_time_usec": 998.28,
            "cycles_per_iteration": 40.1598972573,
            "total_cycles": 2191646.07302,
            "perf_counter_per_iteration": 82.0043061587,
            "total_perf_counter": 4475221,
            "num_iterations": 54573,
            "freq_early_kHz": 2195420.0,
            "freq_late_kHz": 2195420.0,
            "avg_freq_kHz": 2195420.0
          },
          {
            "measured_time_usec": 994.09,
            "cycles_per_iteration": 39.9924600929,
            "total_cycles": 2182508.52465,
            "perf_counter_per_iteration": 82.0,
            "total_perf_counter": 4474986,
            "num_iterations": 54573,
            "freq_early_kHz": 2195475.0,
            "freq_late_kHz": 2195475.0,
            "avg_freq_kHz": 2195475.0
          },
          {
            "measured_time_usec": 990.46,
            "cycles_per_iteration": 39.8461031389,
            "total_cycles": 2174521.3866,
            "perf_counter_per_iteration": 81.9956938413,
            "total_perf_counter": 4474751,
            "num_iterations": 54573,
            "freq_early_kHz": 2195475.0,
            "freq_late_kHz": 2195475.0,
            "avg_freq_kHz": 2195475.0
          },
          {
            "measured_time_usec": 1006.66,
            "cycles_per_iteration": 40.4976489691,
            "total_cycles": 2210078.197191,
            "perf_counter_per_iteration": 82.0043061587,
            "total_perf_counter": 4475221,
            "num_iterations": 54573,
            "freq_early_kHz": 2195463.0,
            "freq_late_kHz": 2195463.0,
            "avg_freq_kHz": 2195463.0
          },
          {
            "measured_time_usec": 994.09,
            "cycles_per_iteration": 39.9922012728,
            "total_cycles": 2182494.400059,
            "perf_counter_per_iteration": 82.0,
            "total_perf_counter": 4474986,
            "num_iterations": 54573,
            "freq_early_kHz": 2195463.0,
            "freq_late_kHz": 2195463.0,
            "avg_freq_kHz": 2195463.0
          },
          {
            "measured_time_usec": 990.69,
            "cycles_per_iteration": 39.8558082096,
            "total_cycles": 2174931.4539989997,
            "perf_counter_per_iteration": 81.9956936045,
            "total_perf_counter": 4474505,
            "num_iterations": 54570,
            "freq_early_kHz": 2195377.0,
            "freq_late_kHz": 2195377.0,
            "avg_freq_kHz": 2195377.0
          },
          {
            "measured_time_usec": 999.25,
            "cycles_per_iteration": 40.198212548,
            "total_cycles": 2193737.053381,
            "perf_counter_per_iteration": 82.0043061587,
            "total_perf_counter": 4475221,
            "num_iterations": 54573,
            "freq_early_kHz": 2195377.0,
            "freq_late_kHz": 2195377.0,
            "avg_freq_kHz": 2195377.0
          },
          {
            "measured_time_usec": 999.55,
            "cycles_per_iteration": 40.1936041154,
            "total_cycles": 2194570.7846999997,
            "perf_counter_per_iteration": 82.0043040293,
            "total_perf_counter": 4477435,
            "num_iterations": 54600,
            "freq_early_kHz": 2195550.0,
            "freq_late_kHz": 2195550.0,
            "avg_freq_kHz": 2195550.0
          }
        ],
        "rt": 0.06995565630495548,
        "num_uops_increased_by": 0
      }
    },
    {
      "kind": "Experiment",
      "iseq": [ "add RW:GPR:32, R:GPR:32", "vpor W:XMM0..15, R:XMM0..15, R:XMM0..15" ],
      "result": {
        "cycles": 0.403937531853,
        "TP": 40.3937531853,
        "num_uops": 2.0,
        "run_details": [
          {
            "measured_time_usec": 993.72,
            "cycles_per_iteration": 40.3520014793,
            "total_cycles": 2179532.6559,
            "perf_counter_per_iteration": 202.0,
            "total_perf_counter": 10910626,
            "num_iterations": 54013,
            "freq_early_kHz": 2193300.0,
            "freq_late_kHz": 2193300.0,
            "avg_freq_kHz": 2193300.0
          },
          {
            "measured_time_usec": 984.16,
            "cycles_per_iteration": 40.0290977191,
            "total_cycles": 2158569.0945,
            "perf_counter_per_iteration": 201.9956420955,
            "total_perf_counter": 10892615,
            "num_iterations": 53925,
            "freq_early_kHz": 2193300.0,
            "freq_late_kHz": 2193300.0,
            "avg_freq_kHz": 2193300.0
          },
          {
            "measured_time_usec": 1007.07,
            "cycles_per_iteration": 40.9585698812,
            "total_cycles": 2210984.560756,
            "perf_counter_per_iteration": 202.0043533836,
            "total_perf_counter": 10904397,
            "num_iterations": 53981,
            "freq_early_kHz": 2195467.0,
            "freq_late_kHz": 2195467.0,
            "avg_freq_kHz": 2195467.0
          },
          {
            "measured_time_usec": 998.28,
            "cycles_per_iteration": 40.57717934,
            "total_cycles": 2191695.187694,
            "perf_counter_per_iteration": 202.0043508044,
            "total_perf_counter": 10910861,
            "num_iterations": 54013,
            "freq_early_kHz": 2195467.0,
            "freq_late_kHz": 2195467.0,
            "avg_freq_kHz": 2195467.0
          },
          {
            "measured_time_usec": 993.66,
            "cycles_per_iteration": 40.3937531853,
            "total_cycles": 2181666.60954,
            "perf_counter_per_iteration": 202.0,
            "total_perf_counter": 10910020,
            "num_iterations": 54010,
            "freq_early_kHz": 2195580.0,
            "freq_late_kHz": 2195580.0,
            "avg_freq_kHz": 2195580.0
          },
          {
            "measured_time_usec": 990.54,
            "cycles_per_iteration": 40.2644405321,
            "total_cycles": 2174803.22646,
            "perf_counter_per_iteration": 201.9956491956,
            "total_perf_counter": 10910391,
            "num_iterations": 54013,
            "freq_early_kHz": 2195580.0,
            "freq_late_kHz": 2195580.0,
            "avg_freq_kHz": 2195580.0
          },
          {
            "measured_time_usec": 997.2,
            "cycles_per_iteration": 40.5345654787,
            "total_cycles": 2189393.4852,
            "perf_counter_per_iteration": 202.0043508044,
            "total_perf_counter": 10910861,
            "num_iterations": 54013,
            "freq_early_kHz": 2195541.0,
            "freq_late_kHz": 2195541.0,
            "avg_freq_kHz": 2195541.0
          },
          {
            "measured_time_usec": 993.73,
            "cycles_per_iteration": 40.3936375419,
            "total_cycles": 2181781.544553,
            "perf_counter_per_iteration": 202.0,
            "total_perf_counter": 10910626,
            "num_iterations": 54013,
            "freq_early_kHz": 2195541.0,
            "freq_late_kHz": 2195541.0,
            "avg_freq_kHz": 2195541.0
          },
          {
            "measured_time_usec": 990.75,
            "cycles_per_iteration": 40.2533801383,
            "total_cycles": 2175252.409296,
            "perf_counter_per_iteration": 201.9956512889,
            "total_perf_counter": 10915643,
            "num_iterations": 54039,
            "freq_early_kHz": 2195568.0,
            "freq_late_kHz": 2195568.0,
            "avg_freq_kHz": 2195568.0
          },
          {
            "measured_time_usec": 997.79,
            "cycles_per_iteration": 40.5613403127,
            "total_cycles": 2190717.990288,
            "perf_counter_per_iteration": 202.0043510461,
            "total_perf_counter": 10910255,
            "num_iterations": 54010,
            "freq_early_kHz": 2195568.0,
            "freq_late_kHz": 2195568.0,
            "avg_freq_kHz": 2195568.0
          },
          {
            "measured_time_usec": 1001.03,
            "cycles_per_iteration": 40.6707866625,
            "total_cycles": 2197808.640456,
            "perf_counter_per_iteration": 202.0043487111,
            "total_perf_counter": 10916113,
            "num_iterations": 54039,
            "freq_early_kHz": 2195556.0,
            "freq_late_kHz": 2195556.0,
            "avg_freq_kHz": 2195556.0
          }
        ],
        "rt": 0.06941841170191765,
        "num_uops_increased_by": 0
      }
    },
    {
      "kind": "Experiment",
      "iseq": [
        "mov dword ptr W:MEM(32), R:GPR:32",
        "vminps W:XMM0..15, R:XMM0..15, R:XMM0..15"
      ],
      "result": {
        "cycles": 0.999861312491,
        "TP": 99.9861312491,
        "num_uops": 3.0,
        "run_details": [
          {
            "measured_time_usec": 1002.99,
            "cycles_per_iteration": 100.4437623873,
            "total_cycles": 2200521.94638,
            "perf_counter_per_iteration": 202.0107266752,
            "total_perf_counter": 4425651,
            "num_iterations": 21908,
            "freq_early_kHz": 2193962.0,
            "freq_late_kHz": 2193962.0,
            "avg_freq_kHz": 2193962.0
          },
          {
            "measured_time_usec": 997.69,
            "cycles_per_iteration": 99.9128972895,
            "total_cycles": 2188891.753818,
            "perf_counter_per_iteration": 202.0,
            "total_perf_counter": 4425416,
            "num_iterations": 21908,
            "freq_early_kHz": 2193962.0,
            "freq_late_kHz": 2193962.0,
            "avg_freq_kHz": 2193962.0
          },
          {
            "measured_time_usec": 993.66,
            "cycles_per_iteration": 99.5965351151,
            "total_cycles": 2181462.908625,
            "perf_counter_per_iteration": 201.9892708761,
            "total_perf_counter": 4424171,
            "num_iterations": 21903,
            "freq_early_kHz": 2195375.0,
            "freq_late_kHz": 2195375.0,
            "avg_freq_kHz": 2195375.0
          },
          {
            "measured_time_usec": 1001.49,
            "cycles_per_iteration": 100.3578383524,
            "total_cycles": 2198639.522625,
            "perf_counter_per_iteration": 202.0107266752,
            "total_perf_counter": 4425651,
            "num_iterations": 21908,
            "freq_early_kHz": 2195375.0,
            "freq_late_kHz": 2195375.0,
            "avg_freq_kHz": 2195375.0
          },
          {
            "measured_time_usec": 1001.39,
            "cycles_per_iteration": 100.3853661887,
            "total_cycles": 2198640.290265,
            "perf_counter_per_iteration": 202.0107296137,
            "total_perf_counter": 4424439,
            "num_iterations": 21902,
            "freq_early_kHz": 2195595.0,
            "freq_late_kHz": 2195595.0,
            "avg_freq_kHz": 2195595.0
          },
          {
            "measured_time_usec": 997.45,
            "cycles_per_iteration": 99.9861312491,
            "total_cycles": 2189996.23275,
            "perf_counter_per_iteration": 202.0,
            "total_perf_counter": 4424406,
            "num_iterations": 21903,
            "freq_early_kHz": 2195595.0,
            "freq_late_kHz": 2195595.0,
            "avg_freq_kHz": 2195595.0
          },
          {
            "measured_time_usec": 992.29,
            "cycles_per_iteration": 99.4397053624,
            "total_cycles": 2178525.06508,
            "perf_counter_per_iteration": 201.9892733248,
            "total_perf_counter": 4425181,
            "num_iterations": 21908,
            "freq_early_kHz": 2195452.0,
            "freq_late_kHz": 2195452.0,
            "avg_freq_kHz": 2195452.0
          },
          {
            "measured_time_usec": 1001.88,
            "cycles_per_iteration": 100.4280457883,
            "total_cycles": 2199575.0588559997,
            "perf_counter_per_iteration": 202.0107296137,
            "total_perf_counter": 4424439,
            "num_iterations": 21902,
            "freq_early_kHz": 2195452.0,
            "freq_late_kHz": 2195452.0,
            "avg_freq_kHz": 2195452.0
          },
          {
            "measured_time_usec": 997.69,
            "cycles_per_iteration": 99.9791579018,
            "total_cycles": 2190343.391313,
            "perf_counter_per_iteration": 202.0,
            "total_perf_counter": 4425416,
            "num_iterations": 21908,
            "freq_early_kHz": 2195417.0,
            "freq_late_kHz": 2195417.0,
            "avg_freq_kHz": 2195417.0
          },
          {
            "measured_time_usec": 990.58,
            "cycles_per_iteration": 99.2891195548,
            "total_cycles": 2174729.585609,
            "perf_counter_per_iteration": 201.9892708761,
            "total_perf_counter": 4424171,
            "num_iterations": 21903,
            "freq_early_kHz": 2195417.0,
            "freq_late_kHz": 2195417.0,
            "avg_freq_kHz": 2195417.0
          },
          {
            "measured_time_usec": 1001.72,
            "cycles_per_iteration": 100.3840958131,
            "total_cycles": 2199214.7710740003,
            "perf_counter_per_iteration": 202.0107266752,
            "total_perf_counter": 4425651,
            "num_iterations": 21908,
            "freq_early_kHz": 2195443.0,
            "freq_late_kHz": 2195443.0,
            "avg_freq_kHz": 2195443.0
          }
        ],
        "rt": 0.0709531158208847,
        "num_uops_increased_by": 1
      }
    },
    {
      "kind": "Experiment",
      "iseq": [
        "mov dword ptr W:MEM(32), R:GPR:32",
        "vpaddsw W:XMM0..15, R:XMM0..15, R:XMM0..15"
      ],
      "result": {
        "cycles": 0.999858371085,
        "TP": 19.9971674217,
        "num_uops": 3.0,
        "run_details": [
          {
            "measured_time_usec": 988.17,
            "cycles_per_iteration": 19.6488721894,
            "total_cycles": 2131804.388187,
            "perf_counter_per_iteration": 42.0,
            "total_perf_counter": 4556790,
            "num_iterations": 108495,
            "freq_early_kHz": 2157319.0,
            "freq_late_kHz": 2157319.0,
            "avg_freq_kHz": 2157319.0
          },
          {
            "measured_time_usec": 991.49,
            "cycles_per_iteration": 19.7148076685,
            "total_cycles": 2138958.057991,
            "perf_counter_per_iteration": 42.0021659984,
            "total_perf_counter": 4557025,
            "num_iterations": 108495,
            "freq_early_kHz": 2157319.0,
            "freq_late_kHz": 2157319.0,
            "avg_freq_kHz": 2157319.0
          },
          {
            "measured_time_usec": 992.27,
            "cycles_per_iteration": 20.0827242672,
            "total_cycles": 2178634.176684,
            "perf_counter_per_iteration": 42.002166238,
            "total_perf_counter": 4556521,
            "num_iterations": 108483,
            "freq_early_kHz": 2195604.0,
            "freq_late_kHz": 2195604.0,
            "avg_freq_kHz": 2195604.0
          },
          {
            "measured_time_usec": 988.15,
            "cycles_per_iteration": 19.9971674217,
            "total_cycles": 2169592.679412,
            "perf_counter_per_iteration": 42.0,
            "total_perf_counter": 4556790,
            "num_iterations": 108495,
            "freq_early_kHz": 2195604.0,
            "freq_late_kHz": 2195604.0,
            "avg_freq_kHz": 2195604.0
          },
          {
            "measured_time_usec": 988.17,
            "cycles_per_iteration": 19.995932719,
            "total_cycles": 2169458.720352,
            "perf_counter_per_iteration": 42.0,
            "total_perf_counter": 4556790,
            "num_iterations": 108495,
            "freq_early_kHz": 2195424.0,
            "freq_late_kHz": 2195424.0,
            "avg_freq_kHz": 2195424.0
          },
          {
            "measured_time_usec": 982.35,
            "cycles_per_iteration": 19.878123064,
            "total_cycles": 2156676.961824,
            "perf_counter_per_iteration": 41.9978340016,
            "total_perf_counter": 4556555,
            "num_iterations": 108495,
            "freq_early_kHz": 2195424.0,
            "freq_late_kHz": 2195424.0,
            "avg_freq_kHz": 2195424.0
          },
          {
            "measured_time_usec": 992.15,
            "cycles_per_iteration": 20.0786533428,
            "total_cycles": 2178433.4944249997,
            "perf_counter_per_iteration": 42.0021659984,
            "total_perf_counter": 4557025,
            "num_iterations": 108495,
            "freq_early_kHz": 2195424.0,
            "freq_late_kHz": 2195915.0,
            "avg_freq_kHz": 2195669.5
          },
          {
            "measured_time_usec": 988.16,
            "cycles_per_iteration": 20.0002023517,
            "total_cycles": 2169921.954145,
            "perf_counter_per_iteration": 42.0,
            "total_perf_counter": 4556790,
            "num_iterations": 108495,
            "freq_early_kHz": 2195915.0,
            "freq_late_kHz": 2195915.0,
            "avg_freq_kHz": 2195915.0
          },
          {
            "measured_time_usec": 988.16,
            "cycles_per_iteration": 20.0001821119,
            "total_cycles": 2169919.75823,
            "perf_counter_per_iteration": 42.0,
            "total_perf_counter": 4556790,
            "num_iterations": 108495,
            "freq_early_kHz": 2195915.0,
            "freq_late_kHz": 2195915.0,
            "avg_freq_kHz": 2195915.0
          },
          {
            "measured_time_usec": 984.48,
            "cycles_per_iteration": 19.9251085276,
            "total_cycles": 2161774.649697,
            "perf_counter_per_iteration": 41.9978340016,
            "total_perf_counter": 4556555,
            "num_iterations": 108495,
            "freq_early_kHz": 2195861.0,
            "freq_late_kHz": 2195861.0,
            "avg_freq_kHz": 2195861.0
          },
          {
            "measured_time_usec": 991.89,
            "cycles_per_iteration": 20.0773427305,
            "total_cycles": 2178050.371429,
            "perf_counter_per_iteration": 42.002166238,
            "total_perf_counter": 4556521,
            "num_iterations": 108483,
            "freq_early_kHz": 2195861.0,
