{
  "kind": "ExperimentList",
  "arch": {
    "kind": "Architecture",
    "insns": [
      "add RW:GPR:32, R:GPR:32",
      "mov W:GPR:32, dword ptr R:MEM(32)",
      "mov dword ptr W:MEM(32), R:GPR:32",
      "vaddps W:XMM0..15, R:XMM0..15, R:XMM0..15",
      "vbroadcastss W:XMM0..15, R:XMM0..15",
      "vminps W:XMM0..15, R:XMM0..15, R:XMM0..15",
      "vmovapd xmmword ptr W:MEM(128), R:XMM0..15",
      "vpaddd W:XMM0..15, R:XMM0..15, R:XMM0..15",
      "vpaddsw W:XMM0..15, R:XMM0..15, R:XMM0..15",
      "vpor W:XMM0..15, R:XMM0..15, R:XMM0..15",
      "vpslld W:XMM0..15, R:XMM0..15, R:XMM0..15",
      "vroundps W:XMM0..15, R:XMM0..15, IMM(8)"
    ]
  },
  "exps": [
    {
      "kind": "Experiment",
      "iseq": [ "mov dword ptr W:MEM(32), R:GPR:32" ],
      "result": {
        "cycles": 0.9998633316562501,
        "TP": 79.9890665325,
        "num_uops": 2.0,
        "run_details": [
          {
            "measured_time_usec": 1002.83,
            "cycles_per_iteration": 80.4292972812,
            "total_cycles": 2199982.5685320003,
            "perf_counter_per_iteration": 82.0085913794,
            "total_perf_counter": 2243181,
            "num_iterations": 27353,
            "freq_early_kHz": 2193772.0,
            "freq_late_kHz": 2193772.0,
            "avg_freq_kHz": 2193772.0
          },
          {
            "measured_time_usec": 996.51,
            "cycles_per_iteration": 79.92225869,
            "total_cycles": 2186113.541948,
            "perf_counter_per_iteration": 82.0,
            "total_perf_counter": 2242946,
            "num_iterations": 27353,
            "freq_early_kHz": 2193772.0,
            "freq_late_kHz": 2193772.0,
            "avg_freq_kHz": 2193772.0
          },
          {
            "measured_time_usec": 986.28,
            "cycles_per_iteration": 79.158291726,
            "total_cycles": 2165216.753581,
            "perf_counter_per_iteration": 81.9914086206,
            "total_perf_counter": 2242711,
            "num_iterations": 27353,
            "freq_early_kHz": 2195339.0,
            "freq_late_kHz": 2195339.0,
            "avg_freq_kHz": 2195339.0
          },
          {
            "measured_time_usec": 1000.29,
            "cycles_per_iteration": 80.2832093374,
            "total_cycles": 2195986.6250050003,
            "perf_counter_per_iteration": 82.0085913794,
            "total_perf_counter": 2243181,
            "num_iterations": 27353,
            "freq_early_kHz": 2195339.0,
            "freq_late_kHz": 2195339.0,
            "avg_freq_kHz": 2195339.0
          },
          {
            "measured_time_usec": 1000.36,
            "cycles_per_iteration": 80.2965077098,
            "total_cycles": 2196350.375385,
            "perf_counter_per_iteration": 82.0085913794,
            "total_perf_counter": 2243181,
            "num_iterations": 27353,
            "freq_early_kHz": 2195549.0,
            "freq_late_kHz": 2195549.0,
            "avg_freq_kHz": 2195549.0
          },
          {
            "measured_time_usec": 996.52,
            "cycles_per_iteration": 79.9877197522,
            "total_cycles": 2187904.098382,
            "perf_counter_per_iteration": 82.0,
            "total_perf_counter": 2242946,
            "num_iterations": 27353,
            "freq_early_kHz": 2195549.0,
            "freq_late_kHz": 2195549.0,
            "avg_freq_kHz": 2195549.0
          },
          {
            "measured_time_usec": 992.85,
            "cycles_per_iteration": 79.6843780628,
            "total_cycles": 2179606.7931509996,
            "perf_counter_per_iteration": 81.9914086206,
            "total_perf_counter": 2242711,
            "num_iterations": 27353,
            "freq_early_kHz": 2195301.0,
            "freq_late_kHz": 2195301.0,
            "avg_freq_kHz": 2195301.0
          },
          {
            "measured_time_usec": 1000.22,
            "cycles_per_iteration": 80.2753990317,
            "total_cycles": 2195772.989715,
            "perf_counter_per_iteration": 82.0085913794,
            "total_perf_counter": 2243181,
            "num_iterations": 27353,
            "freq_early_kHz": 2195301.0,
            "freq_late_kHz": 2195301.0,
            "avg_freq_kHz": 2195301.0
          },
          {
            "measured_time_usec": 996.51,
            "cycles_per_iteration": 79.9890665325,
            "total_cycles": 2187940.936864,
            "perf_counter_per_iteration": 82.0,
            "total_perf_counter": 2242946,
            "num_iterations": 27353,
            "freq_early_kHz": 2195608.0,
            "freq_late_kHz": 2195608.0,
            "avg_freq_kHz": 2195608.0
          },
          {
            "measured_time_usec": 992.87,
            "cycles_per_iteration": 79.6972071135,
            "total_cycles": 2179957.706176,
            "perf_counter_per_iteration": 81.9914086206,
            "total_perf_counter": 2242711,
            "num_iterations": 27353,
            "freq_early_kHz": 2195608.0,
            "freq_late_kHz": 2195608.0,
            "avg_freq_kHz": 2195608.0
          },
          {
            "measured_time_usec": 1000.1,
            "cycles_per_iteration": 80.2759673012,
            "total_cycles": 2195788.5335899997,
            "perf_counter_per_iteration": 82.0085913794,
            "total_perf_counter": 2243181,
            "num_iterations": 27353,
            "freq_early_kHz": 2195558.0,
            "freq_late_kHz": 2195558.0,
            "avg_freq_kHz": 2195558.0
          }
        ],
        "rt": 0.07005095109343529,
        "num_uops_increased_by": 1
      }
    },
    {
      "kind": "Experiment",
      "iseq": [ "vmovapd xmmword ptr W:MEM(128), R:XMM0..15" ],
      "result": {
        "cycles": 0.999873026645,
        "TP": 39.9949210658,
        "num_uops": 2.0,
        "run_details": [
          {
            "measured_time_usec": 1001.52,
            "cycles_per_iteration": 40.2726042828,
            "total_cycles": 2197676.01571,
            "perf_counter_per_iteration": 42.0043063955,
            "total_perf_counter": 2292175,
            "num_iterations": 54570,
            "freq_early_kHz": 2194345.0,
            "freq_late_kHz": 2194345.0,
            "avg_freq_kHz": 2194345.0
          },
          {
            "measured_time_usec": 994.1,
            "cycles_per_iteration": 39.9722782673,
            "total_cycles": 2181407.14188,
            "perf_counter_per_iteration": 42.0,
            "total_perf_counter": 2292066,
            "num_iterations": 54573,
            "freq_early_kHz": 2194345.0,
            "freq_late_kHz": 2194345.0,
            "avg_freq_kHz": 2194345.0
          },
          {
            "measured_time_usec": 990.14,
            "cycles_per_iteration": 39.8535407255,
            "total_cycles": 2173612.1111680004,
            "perf_counter_per_iteration": 41.9956912358,
            "total_perf_counter": 2290445,
            "num_iterations": 54540,
            "freq_early_kHz": 2195264.0,
            "freq_late_kHz": 2195264.0,
            "avg_freq_kHz": 2195264.0
          },
          {
            "measured_time_usec": 1006.45,
            "cycles_per_iteration": 40.4855307021,
            "total_cycles": 2209416.867008,
            "perf_counter_per_iteration": 42.0043061587,
            "total_perf_counter": 2292301,
            "num_iterations": 54573,
            "freq_early_kHz": 2195264.0,
            "freq_late_kHz": 2195264.0,
            "avg_freq_kHz": 2195264.0
          },
          {
            "measured_time_usec": 998.27,
            "cycles_per_iteration": 40.1627912458,
            "total_cycles": 2191804.0066559995,
            "perf_counter_per_iteration": 42.0043061587,
            "total_perf_counter": 2292301,
            "num_iterations": 54573,
            "freq_early_kHz": 2195598.0,
            "freq_late_kHz": 2195598.0,
            "avg_freq_kHz": 2195598.0
          },
          {
            "measured_time_usec": 993.55,
            "cycles_per_iteration": 39.9949210658,
            "total_cycles": 2181442.979694,
            "perf_counter_per_iteration": 42.0,
            "total_perf_counter": 2290806,
            "num_iterations": 54543,
            "freq_early_kHz": 2195598.0,
            "freq_late_kHz": 2195598.0,
            "avg_freq_kHz": 2195598.0
          },
          {
            "measured_time_usec": 990.3,
            "cycles_per_iteration": 39.8328109727,
            "total_cycles": 2173795.9932150003,
            "perf_counter_per_iteration": 41.9956938413,
            "total_perf_counter": 2291831,
            "num_iterations": 54573,
            "freq_early_kHz": 2195095.0,
            "freq_late_kHz": 2195095.0,
            "avg_freq_kHz": 2195095.0
          },
          {
            "measured_time_usec": 997.44,
            "cycles_per_iteration": 40.1201245451,
            "total_cycles": 2189475.5568000004,
            "perf_counter_per_iteration": 42.0043061587,
            "total_perf_counter": 2292301,
            "num_iterations": 54573,
            "freq_early_kHz": 2195095.0,
            "freq_late_kHz": 2195095.0,
            "avg_freq_kHz": 2195095.0
          },
          {
            "measured_time_usec": 1007.81,
            "cycles_per_iteration": 40.5680677673,
            "total_cycles": 2212704.120231,
            "perf_counter_per_iteration": 42.0043085272,
            "total_perf_counter": 2291041,
            "num_iterations": 54543,
            "freq_early_kHz": 2195559.0,
            "freq_late_kHz": 2195559.0,
            "avg_freq_kHz": 2195559.0
          },
          {
            "measured_time_usec": 993.54,
            "cycles_per_iteration": 39.9938081062,
            "total_cycles": 2181382.2755369996,
            "perf_counter_per_iteration": 42.0,
            "total_perf_counter": 2290806,
            "num_iterations": 54543,
            "freq_early_kHz": 2195559.0,
            "freq_late_kHz": 2195559.0,
            "avg_freq_kHz": 2195559.0
          },
          {
            "measured_time_usec": 990.62,
            "cycles_per_iteration": 39.8445024739,
            "total_cycles": 2174434.03351,
            "perf_counter_per_iteration": 41.9956938413,
            "total_perf_counter": 2291831,
            "num_iterations": 54573,
            "freq_early_kHz": 2195030.0,
            "freq_late_kHz": 2195030.0,
            "avg_freq_kHz": 2195030.0
          }
        ],
        "rt": 0.06955485790967941,
        "num_uops_increased_by": 1
      }
    },
    {
      "kind": "Experiment",
      "iseq": [
        "vmovapd xmmword ptr W:MEM(128), R:XMM0..15",
        "vroundps W:XMM0..15, R:XMM0..15, IMM(8)"
      ],
      "result": {
        "cycles": 0.99999635453,
        "TP": 19.9999270906,
        "num_uops": 3.0,
        "run_details": [
          {
            "measured_time_usec": 988.16,
            "cycles_per_iteration": 19.5660281482,
            "total_cycles": 2122816.2239349997,
            "perf_counter_per_iteration": 42.0,
            "total_perf_counter": 4556790,
            "num_iterations": 108495,
            "freq_early_kHz": 2148245.0,
            "freq_late_kHz": 2148245.0,
            "avg_freq_kHz": 2148245.0
          },
          {
            "measured_time_usec": 991.57,
            "cycles_per_iteration": 19.6334683295,
            "total_cycles": 2130133.1464050002,
            "perf_counter_per_iteration": 42.0021659984,
            "total_perf_counter": 4557025,
            "num_iterations": 108495,
            "freq_early_kHz": 2148245.0,
            "freq_late_kHz": 2148245.0,
            "avg_freq_kHz": 2148245.0
          },
          {
            "measured_time_usec": 992.27,
            "cycles_per_iteration": 20.081433957,
            "total_cycles": 2178735.17716,
            "perf_counter_per_iteration": 42.0021659984,
            "total_perf_counter": 4557025,
            "num_iterations": 108495,
            "freq_early_kHz": 2195708.0,
            "freq_late_kHz": 2195708.0,
            "avg_freq_kHz": 2195708.0
          },
          {
            "measured_time_usec": 988.16,
            "cycles_per_iteration": 19.9983170137,
            "total_cycles": 2169717.404404,
            "perf_counter_per_iteration": 42.0,
            "total_perf_counter": 4556790,
            "num_iterations": 108495,
            "freq_early_kHz": 2195708.0,
            "freq_late_kHz": 2195708.0,
            "avg_freq_kHz": 2195708.0
          },
          {
            "measured_time_usec": 988.05,
            "cycles_per_iteration": 19.9950491999,
            "total_cycles": 2169122.922356,
            "perf_counter_per_iteration": 42.0,
            "total_perf_counter": 4556286,
            "num_iterations": 108483,
            "freq_early_kHz": 2195353.0,
            "freq_late_kHz": 2195353.0,
            "avg_freq_kHz": 2195353.0
          },
          {
            "measured_time_usec": 992.87,
            "cycles_per_iteration": 20.0903684392,
            "total_cycles": 2179704.523816,
            "perf_counter_per_iteration": 42.0021659984,
            "total_perf_counter": 4557025,
            "num_iterations": 108495,
            "freq_early_kHz": 2195353.0,
            "freq_late_kHz": 2195353.0,
            "avg_freq_kHz": 2195353.0
          },
          {
            "measured_time_usec": 994.23,
            "cycles_per_iteration": 20.1203747185,
            "total_cycles": 2182960.05508,
            "perf_counter_per_iteration": 42.0021659984,
            "total_perf_counter": 4557025,
            "num_iterations": 108495,
            "freq_early_kHz": 2195353.0,
            "freq_late_kHz": 2195887.0,
            "avg_freq_kHz": 2195620.0
          },
          {
            "measured_time_usec": 988.16,
            "cycles_per_iteration": 19.9999270906,
            "total_cycles": 2169892.089694,
            "perf_counter_per_iteration": 42.0,
            "total_perf_counter": 4556790,
            "num_iterations": 108495,
            "freq_early_kHz": 2195887.0,
            "freq_late_kHz": 2195887.0,
            "avg_freq_kHz": 2195887.0
          },
          {
            "measured_time_usec": 988.16,
            "cycles_per_iteration": 19.9999473301,
            "total_cycles": 2169894.2855809997,
            "perf_counter_per_iteration": 42.0,
            "total_perf_counter": 4556790,
            "num_iterations": 108495,
            "freq_early_kHz": 2195887.0,
            "freq_late_kHz": 2195887.0,
            "avg_freq_kHz": 2195887.0
          },
          {
            "measured_time_usec": 984.89,
            "cycles_per_iteration": 19.93377882,
            "total_cycles": 2162715.3330739997,
            "perf_counter_per_iteration": 41.9978340016,
            "total_perf_counter": 4556555,
            "num_iterations": 108495,
            "freq_early_kHz": 2195902.0,
            "freq_late_kHz": 2195902.0,
            "avg_freq_kHz": 2195902.0
          },
          {
            "measured_time_usec": 991.98,
            "cycles_per_iteration": 20.0773387341,
            "total_cycles": 2178290.8659599996,
            "perf_counter_per_iteration": 42.0021659984,
            "total_perf_counter": 4557025,
            "num_iterations": 108495,
            "freq_early_kHz": 2195902.0,
            "freq_late_kHz": 2195902.0,
            "avg_freq_kHz": 2195902.0
          }
        ],
        "rt": 0.08815102092921734,
        "num_uops_increased_by": 1
      }
    },
    {
      "kind": "Experiment",
      "iseq": [
        "mov dword ptr W:MEM(32), R:GPR:32",
        "vmovapd xmmword ptr W:MEM(128), R:XMM0..15"
      ],
      "result": {
        "cycles": 1.999517861704,
        "TP": 199.9517861704,
        "num_uops": 4.0,
        "run_details": [
          {
            "measured_time_usec": 998.77,
            "cycles_per_iteration": 199.8247308782,
            "total_cycles": 2191277.99881,
            "perf_counter_per_iteration": 202.0,
            "total_perf_counter": 2215132,
            "num_iterations": 10966,
            "freq_early_kHz": 2193970.0,
            "freq_late_kHz": 2193970.0,
            "avg_freq_kHz": 2193970.0
          },
          {
            "measured_time_usec": 994.96,
            "cycles_per_iteration": 199.0610628597,
            "total_cycles": 2182903.61532,
            "perf_counter_per_iteration": 201.9785701258,
            "total_perf_counter": 2214897,
            "num_iterations": 10966,
            "freq_early_kHz": 2193970.0,
            "freq_late_kHz": 2193970.0,
            "avg_freq_kHz": 2193970.0
          },
          {
            "measured_time_usec": 1012.7,
            "cycles_per_iteration": 202.7395353611,
            "total_cycles": 2223241.7447699993,
            "perf_counter_per_iteration": 202.0214298742,
            "total_perf_counter": 2215367,
            "num_iterations": 10966,
            "freq_early_kHz": 2195365.0,
            "freq_late_kHz": 2195365.0,
            "avg_freq_kHz": 2195365.0
          },
          {
            "measured_time_usec": 998.77,
            "cycles_per_iteration": 199.9517861704,
            "total_cycles": 2192671.287145,
            "perf_counter_per_iteration": 202.0,
            "total_perf_counter": 2215132,
            "num_iterations": 10966,
            "freq_early_kHz": 2195365.0,
            "freq_late_kHz": 2195365.0,
            "avg_freq_kHz": 2195365.0
          },
          {
            "measured_time_usec": 984.21,
            "cycles_per_iteration": 197.0081362721,
            "total_cycles": 2160391.22236,
            "perf_counter_per_iteration": 201.9785701258,
            "total_perf_counter": 2214897,
            "num_iterations": 10966,
            "freq_early_kHz": 2195060.0,
            "freq_late_kHz": 2195060.0,
            "avg_freq_kHz": 2195060.0
          },
          {
            "measured_time_usec": 1004.65,
            "cycles_per_iteration": 201.1010043936,
            "total_cycles": 2205273.61418,
            "perf_counter_per_iteration": 202.0214298742,
            "total_perf_counter": 2215367,
            "num_iterations": 10966,
            "freq_early_kHz": 2195060.0,
            "freq_late_kHz": 2195060.0,
            "avg_freq_kHz": 2195060.0
          },
          {
            "measured_time_usec": 998.77,
            "cycles_per_iteration": 199.9448641617,
            "total_cycles": 2192595.380397,
            "perf_counter_per_iteration": 202.0,
            "total_perf_counter": 2215132,
            "num_iterations": 10966,
            "freq_early_kHz": 2195289.0,
            "freq_late_kHz": 2195289.0,
            "avg_freq_kHz": 2195289.0
          },
          {
            "measured_time_usec": 991.92,
            "cycles_per_iteration": 198.5729586796,
            "total_cycles": 2177551.06488,
            "perf_counter_per_iteration": 201.9785701258,
            "total_perf_counter": 2214897,
            "num_iterations": 10966,
            "freq_early_kHz": 2195289.0,
            "freq_late_kHz": 2195289.0,
            "avg_freq_kHz": 2195289.0
          },
          {
            "measured_time_usec": 1003.21,
            "cycles_per_iteration": 200.81521301,
            "total_cycles": 2202139.625868,
            "perf_counter_per_iteration": 202.0214298742,
            "total_perf_counter": 2215367,
            "num_iterations": 10966,
            "freq_early_kHz": 2195089.0,
            "freq_late_kHz": 2195089.0,
            "avg_freq_kHz": 2195089.0
          },
          {
            "measured_time_usec": 1002.64,
            "cycles_per_iteration": 200.7007144775,
            "total_cycles": 2200884.0349599994,
            "perf_counter_per_iteration": 202.0214298742,
            "total_perf_counter": 2215367,
            "num_iterations": 10966,
            "freq_early_kHz": 2195089.0,
            "freq_late_kHz": 2195089.0,
            "avg_freq_kHz": 2195089.0
          },
          {
            "measured_time_usec": 998.77,
            "cycles_per_iteration": 199.9625334998,
            "total_cycles": 2192789.1423589997,
            "perf_counter_per_iteration": 202.0,
            "total_perf_counter": 2215132,
            "num_iterations": 10966,
            "freq_early_kHz": 2195483.0,
            "freq_late_kHz": 2195483.0,
            "avg_freq_kHz": 2195483.0
          }
        ],
        "rt": 0.07123085483908653,
        "num_uops_increased_by": 2
      }
    },
    {
      "kind": "Experiment",
      "iseq": [
        "mov dword ptr W:MEM(32), R:GPR:32",
        "vpslld W:XMM0..15, R:XMM0..15, R:XMM0..15"
      ],
      "result": {
        "cycles": 0.99985475368,
        "TP": 19.9970950736,
        "num_uops": 3.0,
        "run_details": [
          {
            "measured_time_usec": 988.04,
            "cycles_per_iteration": 19.3152784094,
            "total_cycles": 2095379.3476909997,
            "perf_counter_per_iteration": 42.0,
            "total_perf_counter": 4556286,
            "num_iterations": 108483,
            "freq_early_kHz": 2120737.0,
            "freq_late_kHz": 2120737.0,
            "avg_freq_kHz": 2120737.0
          },
          {
            "measured_time_usec": 656.36,
            "cycles_per_iteration": 19.3152568414,
            "total_cycles": 1391973.299531,
            "perf_counter_per_iteration": 42.0,
            "total_perf_counter": 3026772,
            "num_iterations": 72066,
            "freq_early_kHz": 2120737.0,
            "freq_late_kHz": 2120737.0,
            "avg_freq_kHz": 2120737.0
          },
          {
            "measured_time_usec": 984.03,
            "cycles_per_iteration": 19.5739930386,
            "total_cycles": 2123680.374725,
            "perf_counter_per_iteration": 41.9978340016,
            "total_perf_counter": 4556555,
            "num_iterations": 108495,
            "freq_early_kHz": 2120737.0,
            "freq_late_kHz": 2195533.0,
            "avg_freq_kHz": 2158135.0,
            "discarded": True
          },
          {
            "measured_time_usec": 992.2,
            "cycles_per_iteration": 20.0784169095,
            "total_cycles": 2178407.8426,
            "perf_counter_per_iteration": 42.0021659984,
            "total_perf_counter": 4557025,
            "num_iterations": 108495,
            "freq_early_kHz": 2195533.0,
            "freq_late_kHz": 2195533.0,
            "avg_freq_kHz": 2195533.0
          },
          {
            "measured_time_usec": 994.23,
            "cycles_per_iteration": 20.1195774618,
            "total_cycles": 2182873.5567220002,
            "perf_counter_per_iteration": 42.0021659984,
            "total_perf_counter": 4557025,
            "num_iterations": 108495,
            "freq_early_kHz": 2195533.0,
            "freq_late_kHz": 2195533.0,
            "avg_freq_kHz": 2195533.0
          },
          {
            "measured_time_usec": 987.08,
            "cycles_per_iteration": 19.9970950736,
            "total_cycles": 2167225.1727899997,
            "perf_counter_per_iteration": 42.0,
            "total_perf_counter": 4551834,
            "num_iterations": 108377,
            "freq_early_kHz": 2195590.0,
            "freq_late_kHz": 2195590.0,
            "avg_freq_kHz": 2195590.0
          },
          {
            "measured_time_usec": 984.7,
            "cycles_per_iteration": 19.9270813461,
            "total_cycles": 2161988.6906399997,
            "perf_counter_per_iteration": 41.9978340016,
            "total_perf_counter": 4556555,
            "num_iterations": 108495,
            "freq_early_kHz": 2195590.0,
            "freq_late_kHz": 2195590.0,
            "avg_freq_kHz": 2195590.0
          },
          {
            "measured_time_usec": 993.15,
            "cycles_per_iteration": 20.0979381379,
            "total_cycles": 2180525.7982719997,
            "perf_counter_per_iteration": 42.0021659984,
            "total_perf_counter": 4557025,
            "num_iterations": 108495,
            "freq_early_kHz": 2195590.0,
            "freq_late_kHz": 2195532.0,
            "avg_freq_kHz": 2195561.0
          },
          {
            "measured_time_usec": 992.54,
            "cycles_per_iteration": 20.0853083258,
            "total_cycles": 2179155.526812,
            "perf_counter_per_iteration": 42.0021659984,
            "total_perf_counter": 4557025,
            "num_iterations": 108495,
            "freq_early_kHz": 2195532.0,
            "freq_late_kHz": 2195532.0,
            "avg_freq_kHz": 2195532.0
          },
          {
            "measured_time_usec": 988.15,
            "cycles_per_iteration": 19.9965116586,
            "total_cycles": 2169521.532396,
            "perf_counter_per_iteration": 42.0,
            "total_perf_counter": 4556790,
            "num_iterations": 108495,
            "freq_early_kHz": 2195532.0,
            "freq_late_kHz": 2195532.0,
            "avg_freq_kHz": 2195532.0
          },
          {
            "measured_time_usec": 982.3,
            "cycles_per_iteration": 19.8799563507,
            "total_cycles": 2156875.864272,
            "perf_counter_per_iteration": 41.9978340016,
            "total_perf_counter": 4556555,
            "num_iterations": 108495,
            "freq_early_kHz": 2195736.0,
            "freq_late_kHz": 2195736.0,
            "avg_freq_kHz": 2195736.0
          }
        ],
        "rt": 0.08384818397462368,
        "num_uops_increased_by": 1
      }
    },
    {
      "kind": "Experiment",
      "iseq": [
        "mov dword ptr W:MEM(32), R:GPR:32",
        "vroundps W:XMM0..15, R:XMM0..15, IMM(8)"
      ],
      "result": {
        "cycles": 0.9997991684149999,
        "TP": 19.9959833683,
        "num_uops": 3.0,
        "run_details": [
          {
            "measured_time_usec": 988.06,
            "cycles_per_iteration": 19.2752584928,
            "total_cycles": 2091037.8670719997,
            "perf_counter_per_iteration": 42.0,
            "total_perf_counter": 4556286,
            "num_iterations": 108483,
            "freq_early_kHz": 2116298.0,
            "freq_late_kHz": 2116298.0,
            "avg_freq_kHz": 2116298.0
          },
          {
            "measured_time_usec": 983.55,
            "cycles_per_iteration": 19.1851352301,
            "total_cycles": 2081491.2467939998,
            "perf_counter_per_iteration": 41.9978340016,
            "total_perf_counter": 4556555,
            "num_iterations": 108495,
            "freq_early_kHz": 2116298.0,
            "freq_late_kHz": 2116298.0,
            "avg_freq_kHz": 2116298.0
          },
          {
            "measured_time_usec": 995.15,
            "cycles_per_iteration": 20.1395358377,
            "total_cycles": 2184797.266284,
            "perf_counter_per_iteration": 42.002166238,
            "total_perf_counter": 4556521,
            "num_iterations": 108483,
            "freq_early_kHz": 2195454.0,
            "freq_late_kHz": 2195454.0,
            "avg_freq_kHz": 2195454.0
          },
          {
            "measured_time_usec": 988.16,
            "cycles_per_iteration": 19.9959833683,
            "total_cycles": 2169464.215548,
            "perf_counter_per_iteration": 42.0,
            "total_perf_counter": 4556790,
            "num_iterations": 108495,
            "freq_early_kHz": 2195454.0,
            "freq_late_kHz": 2195454.0,
            "avg_freq_kHz": 2195454.0
          },
          {
            "measured_time_usec": 988.16,
            "cycles_per_iteration": 19.9955937478,
            "total_cycles": 2169421.9436669997,
            "perf_counter_per_iteration": 42.0,
            "total_perf_counter": 4556790,
            "num_iterations": 108495,
            "freq_early_kHz": 2195409.0,
            "freq_late_kHz": 2195409.0,
            "avg_freq_kHz": 2195409.0
          },
          {
            "measured_time_usec": 984.05,
            "cycles_per_iteration": 19.9124678879,
            "total_cycles": 2160403.203495,
            "perf_counter_per_iteration": 41.9978340016,
            "total_perf_counter": 4556555,
            "num_iterations": 108495,
            "freq_early_kHz": 2195409.0,
            "freq_late_kHz": 2195409.0,
            "avg_freq_kHz": 2195409.0
          },
          {
            "measured_time_usec": 991.56,
            "cycles_per_iteration": 20.0657653395,
            "total_cycles": 2177035.210512,
            "perf_counter_per_iteration": 42.0021659984,
            "total_perf_counter": 4557025,
            "num_iterations": 108495,
            "freq_early_kHz": 2195409.0,
            "freq_late_kHz": 2195727.0,
            "avg_freq_kHz": 2195568.0
          },
          {
            "measured_time_usec": 988.16,
            "cycles_per_iteration": 19.9984900641,
            "total_cycles": 2169736.179501,
            "perf_counter_per_iteration": 42.0,
            "total_perf_counter": 4556790,
            "num_iterations": 108495,
            "freq_early_kHz": 2195727.0,
            "freq_late_kHz": 2195727.0,
            "avg_freq_kHz": 2195727.0
          },
          {
            "measured_time_usec": 988.15,
            "cycles_per_iteration": 19.9982876836,
            "total_cycles": 2169714.2222309997,
            "perf_counter_per_iteration": 42.0,
            "total_perf_counter": 4556790,
            "num_iterations": 108495,
            "freq_early_kHz": 2195727.0,
            "freq_late_kHz": 2195727.0,
            "avg_freq_kHz": 2195727.0
          },
          {
            "measured_time_usec": 984.57,
            "cycles_per_iteration": 19.9265831324,
            "total_cycles": 2161934.6369499997,
            "perf_counter_per_iteration": 41.9978340016,
            "total_perf_counter": 4556555,
            "num_iterations": 108495,
            "freq_early_kHz": 2195825.0,
            "freq_late_kHz": 2195825.0,
            "avg_freq_kHz": 2195825.0
          },
          {
            "measured_time_usec": 992.28,
            "cycles_per_iteration": 20.0827064012,
            "total_cycles": 2178873.231,
            "perf_counter_per_iteration": 42.0021659984,
            "total_perf_counter": 4557025,
            "num_iterations": 108495,
            "freq_early_kHz": 2195825.0,
            "freq_late_kHz": 2195825.0,
            "avg_freq_kHz": 2195825.0
          }
        ],
        "rt": 0.08832372911274433,
        "num_uops_increased_by": 1
      }
    },
    {
      "kind": "Experiment",
      "iseq": [
        "mov W:GPR:32, dword ptr R:MEM(32)",
        "vminps W:XMM0..15, R:XMM0..15, R:XMM0..15"
      ],
      "result": {
        "cycles": 0.499975710781,
        "TP": 49.9975710781,
        "num_uops": 2.0,
        "run_details": [
          {
            "measured_time_usec": 994.66,
            "cycles_per_iteration": 49.9630897198,
            "total_cycles": 2182537.64823,
            "perf_counter_per_iteration": 202.0,
            "total_perf_counter": 8823966,
            "num_iterations": 43683,
            "freq_early_kHz": 2194266.0,
            "freq_late_kHz": 2194266.0,
            "avg_freq_kHz": 2194266.0
          },
          {
            "measured_time_usec": 990.19,
            "cycles_per_iteration": 49.717030519,
            "total_cycles": 2172733.6677419995,
            "perf_counter_per_iteration": 201.9946226717,
            "total_perf_counter": 8827569,
            "num_iterations": 43702,
            "freq_early_kHz": 2194266.0,
            "freq_late_kHz": 2194266.0,
            "avg_freq_kHz": 2194266.0
          },
          {
            "measured_time_usec": 1007.52,
            "cycles_per_iteration": 50.6111335504,
            "total_cycles": 2211706.536154,
            "perf_counter_per_iteration": 202.0053775744,
            "total_perf_counter": 8827635,
            "num_iterations": 43700,
            "freq_early_kHz": 2195203.0,
            "freq_late_kHz": 2195203.0,
            "avg_freq_kHz": 2195203.0
          },
          {
            "measured_time_usec": 995.04,
            "cycles_per_iteration": 49.9841192748,
            "total_cycles": 2184306.012308,
            "perf_counter_per_iteration": 202.0,
            "total_perf_counter": 8827400,
            "num_iterations": 43700,
            "freq_early_kHz": 2195203.0,
            "freq_late_kHz": 2195203.0,
            "avg_freq_kHz": 2195203.0
          },
          {
            "measured_time_usec": 991.16,
            "cycles_per_iteration": 49.7954328278,
            "total_cycles": 2176060.4145750003,
            "perf_counter_per_iteration": 201.9946224256,
            "total_perf_counter": 8827165,
            "num_iterations": 43700,
            "freq_early_kHz": 2195475.0,
            "freq_late_kHz": 2195475.0,
            "avg_freq_kHz": 2195475.0
          },
          {
            "measured_time_usec": 998.4,
            "cycles_per_iteration": 50.1594194725,
            "total_cycles": 2191966.63095,
            "perf_counter_per_iteration": 202.0053775744,
            "total_perf_counter": 8827635,
            "num_iterations": 43700,
            "freq_early_kHz": 2195475.0,
            "freq_late_kHz": 2195475.0,
            "avg_freq_kHz": 2195475.0
          },
          {
            "measured_time_usec": 1002.27,
            "cycles_per_iteration": 50.3590334452,
            "total_cycles": 2200790.47962,
            "perf_counter_per_iteration": 202.0053773283,
            "total_perf_counter": 8828039,
            "num_iterations": 43702,
            "freq_early_kHz": 2195806.0,
            "freq_late_kHz": 2195806.0,
            "avg_freq_kHz": 2195806.0
          },
          {
            "measured_time_usec": 995.08,
            "cycles_per_iteration": 49.9975710781,
            "total_cycles": 2184993.8512559994,
            "perf_counter_per_iteration": 202.0,
            "total_perf_counter": 8827804,
            "num_iterations": 43702,
            "freq_early_kHz": 2195806.0,
            "freq_late_kHz": 2195806.0,
            "avg_freq_kHz": 2195806.0
          },
          {
            "measured_time_usec": 990.56,
            "cycles_per_iteration": 49.7949405049,
            "total_cycles": 2175092.7961959997,
            "perf_counter_per_iteration": 201.9946200865,
            "total_perf_counter": 8823327,
            "num_iterations": 43681,
            "freq_early_kHz": 2195828.0,
            "freq_late_kHz": 2195828.0,
            "avg_freq_kHz": 2195828.0
          },
          {
            "measured_time_usec": 999.03,
            "cycles_per_iteration": 50.1991907168,
            "total_cycles": 2193704.634324,
            "perf_counter_per_iteration": 202.0053775744,
            "total_perf_counter": 8827635,
            "num_iterations": 43700,
            "freq_early_kHz": 2195828.0,
            "freq_late_kHz": 2195828.0,
            "avg_freq_kHz": 2195828.0
          },
          {
            "measured_time_usec": 998.62,
            "cycles_per_iteration": 50.1780933916,
            "total_cycles": 2192883.037398,
            "perf_counter_per_iteration": 202.0053773283,
            "total_perf_counter": 8828039,
            "num_iterations": 43702,
            "freq_early_kHz": 2195909.0,
            "freq_late_kHz": 2195909.0,
            "avg_freq_kHz": 2195909.0
          }
        ],
        "rt": 0.07014456018805504,
        "num_uops_increased_by": 0
      }
    },
    {
      "kind": "Experiment",
      "iseq": [
        "vpslld W:XMM0..15, R:XMM0..15, R:XMM0..15",
        "vroundps W:XMM0..15, R:XMM0..15, IMM(8)"
      ],
      "result": {
        "cycles": 0.9999832492399999,
        "TP": 19.9996649848,
        "num_uops": 2.0,
        "run_details": [
          {
            "measured_time_usec": 988.16,
            "cycles_per_iteration": 19.2151366994,
            "total_cycles": 2084746.2561969997,
            "perf_counter_per_iteration": 42.0,
            "total_perf_counter": 4556790,
            "num_iterations": 108495,
            "freq_early_kHz": 2109719.0,
            "freq_late_kHz": 2109719.0,
            "avg_freq_kHz": 2109719.0
          },
          {
            "measured_time_usec": 975.77,
            "cycles_per_iteration": 18.9741509621,
            "total_cycles": 2058600.5086299998,
            "perf_counter_per_iteration": 41.9978340016,
            "total_perf_counter": 4556555,
            "num_iterations": 108495,
            "freq_early_kHz": 2109719.0,
            "freq_late_kHz": 2109719.0,
            "avg_freq_kHz": 2109719.0
          },
          {
            "measured_time_usec": 992.64,
            "cycles_per_iteration": 20.0865817176,
            "total_cycles": 2179293.68345,
            "perf_counter_per_iteration": 42.0021659984,
            "total_perf_counter": 4557025,
            "num_iterations": 108495,
            "freq_early_kHz": 2195450.0,
            "freq_late_kHz": 2195450.0,
            "avg_freq_kHz": 2195450.0
          },
          {
            "measured_time_usec": 989.23,
            "cycles_per_iteration": 19.9959119143,
            "total_cycles": 2171815.98075,
            "perf_counter_per_iteration": 42.0,
            "total_perf_counter": 4561746,
            "num_iterations": 108613,
            "freq_early_kHz": 2195450.0,
            "freq_late_kHz": 2195450.0,
            "avg_freq_kHz": 2195450.0
          },
          {
            "measured_time_usec": 988.17,
            "cycles_per_iteration": 19.9952567081,
            "total_cycles": 2169385.3765439996,
            "perf_counter_per_iteration": 42.0,
            "total_perf_counter": 4556790,
            "num_iterations": 108495,
            "freq_early_kHz": 2195352.0,
            "freq_late_kHz": 2195352.0,
            "avg_freq_kHz": 2195352.0
          },
          {
            "measured_time_usec": 993.29,
            "cycles_per_iteration": 20.0988578163,
            "total_cycles": 2180625.578784,
            "perf_counter_per_iteration": 42.0021659984,
            "total_perf_counter": 4557025,
            "num_iterations": 108495,
            "freq_early_kHz": 2195352.0,
            "freq_late_kHz": 2195352.0,
            "avg_freq_kHz": 2195352.0
          },
          {
            "measured_time_usec": 993.92,
            "cycles_per_iteration": 20.1139546532,
            "total_cycles": 2182263.5100959996,
            "perf_counter_per_iteration": 42.0021659984,
            "total_perf_counter": 4557025,
            "num_iterations": 108495,
            "freq_early_kHz": 2195352.0,
            "freq_late_kHz": 2195856.0,
            "avg_freq_kHz": 2195604.0
          },
          {
            "measured_time_usec": 988.16,
            "cycles_per_iteration": 19.9996649848,
            "total_cycles": 2169863.652528,
            "perf_counter_per_iteration": 42.0,
            "total_perf_counter": 4556790,
            "num_iterations": 108495,
            "freq_early_kHz": 2195856.0,
            "freq_late_kHz": 2195856.0,
            "avg_freq_kHz": 2195856.0
          },
          {
            "measured_time_usec": 988.16,
            "cycles_per_iteration": 19.9996649848,
            "total_cycles": 2169863.652528,
            "perf_counter_per_iteration": 42.0,
            "total_perf_counter": 4556790,
            "num_iterations": 108495,
            "freq_early_kHz": 2195856.0,
            "freq_late_kHz": 2195856.0,
            "avg_freq_kHz": 2195856.0
          },
          {
            "measured_time_usec": 984.63,
            "cycles_per_iteration": 19.9297930556,
            "total_cycles": 2162043.7400519997,
            "perf_counter_per_iteration": 41.997833762,
            "total_perf_counter": 4556051,
            "num_iterations": 108483,
            "freq_early_kHz": 2195802.0,
            "freq_late_kHz": 2195802.0,
            "avg_freq_kHz": 2195802.0
          },
          {
            "measured_time_usec": 991.97,
            "cycles_per_iteration": 20.0762220373,
            "total_cycles": 2178169.7099399995,
            "perf_counter_per_iteration": 42.0021659984,
            "total_perf_counter": 4557025,
            "num_iterations": 108495,
            "freq_early_kHz": 2195802.0,
            "freq_late_kHz": 2195802.0,
            "avg_freq_kHz": 2195802.0
          }
        ],
        "rt": 0.08644108101725578,
        "num_uops_increased_by": 0
      }
    },
    {
      "kind": "Experiment",
      "iseq": [
        "vaddps W:XMM0..15, R:XMM0..15, R:XMM0..15",
        "vpaddsw W:XMM0..15, R:XMM0..15, R:XMM0..15"
      ],
      "result": {
        "cycles": 0.66662024432,
        "TP": 13.3324048864,
        "num_uops": 2.0,
        "run_details": [
          {
            "measured_time_usec": 982.35,
            "cycles_per_iteration": 12.9254646626,
            "total_cycles": 2091159.2259040002,
            "perf_counter_per_iteration": 42.0,
            "total_perf_counter": 6795012,
            "num_iterations": 161786,
            "freq_early_kHz": 2128727.0,
            "freq_late_kHz": 2128727.0,
            "avg_freq_kHz": 2128727.0
          },
          {
            "measured_time_usec": 957.5,
            "cycles_per_iteration": 12.6005204507,
            "total_cycles": 2038247.5875919997,
            "perf_counter_per_iteration": 41.9985472215,
            "total_perf_counter": 6793643,
            "num_iterations": 161759,
            "freq_early_kHz": 2128727.0,
            "freq_late_kHz": 2128727.0,
            "avg_freq_kHz": 2128727.0
          },
          {
            "measured_time_usec": 1006.08,
            "cycles_per_iteration": 13.4458373472,
            "total_cycles": 2175348.2410545,
            "perf_counter_per_iteration": 42.0014525361,
            "total_perf_counter": 6795247,
            "num_iterations": 161786,
            "freq_early_kHz": 2128727.0,
            "freq_late_kHz": 2195690.0,
            "avg_freq_kHz": 2162208.5,
            "discarded": True
          },
          {
            "measured_time_usec": 1027.98,
            "cycles_per_iteration": 13.9512480897,
            "total_cycles": 2257116.62344,
            "perf_counter_per_iteration": 42.0014525361,
            "total_perf_counter": 6795247,
            "num_iterations": 161786,
            "freq_early_kHz": 2195690.0,
            "freq_late_kHz": 2195690.0,
            "avg_freq_kHz": 2195690.0
          },
          {
            "measured_time_usec": 982.35,
            "cycles_per_iteration": 13.3315214217,
            "total_cycles": 2156853.524728,
            "perf_counter_per_iteration": 42.0,
            "total_perf_counter": 6795012,
            "num_iterations": 161786,
            "freq_early_kHz": 2195690.0,
            "freq_late_kHz": 2195513.0,
            "avg_freq_kHz": 2195601.5
          },
          {
            "measured_time_usec": 958.34,
            "cycles_per_iteration": 13.0072598241,
            "total_cycles": 2104041.341881,
            "perf_counter_per_iteration": 41.9985472215,
            "total_perf_counter": 6793643,
            "num_iterations": 161759,
            "freq_early_kHz": 2195513.0,
            "freq_late_kHz": 2195513.0,
            "avg_freq_kHz": 2195513.0
          },
          {
            "measured_time_usec": 1006.2,
            "cycles_per_iteration": 13.657565412,
            "total_cycles": 2209234.12348,
            "perf_counter_per_iteration": 42.0014527785,
            "total_perf_counter": 6794113,
            "num_iterations": 161759,
            "freq_early_kHz": 2195513.0,
            "freq_late_kHz": 2195747.0,
            "avg_freq_kHz": 2195630.0
          },
          {
            "measured_time_usec": 1027.61,
            "cycles_per_iteration": 13.9489301209,
            "total_cycles": 2256364.987429,
            "perf_counter_per_iteration": 42.0014527785,
            "total_perf_counter": 6794113,
            "num_iterations": 161759,
            "freq_early_kHz": 2195747.0,
            "freq_late_kHz": 2195747.0,
            "avg_freq_kHz": 2195747.0
          },
          {
            "measured_time_usec": 982.35,
            "cycles_per_iteration": 13.3324048864,
            "total_cycles": 2156996.4569440004,
            "perf_counter_per_iteration": 42.0,
            "total_perf_counter": 6795012,
            "num_iterations": 161786,
            "freq_early_kHz": 2195747.0,
            "freq_late_kHz": 2195747.0,
            "avg_freq_kHz": 2195747.0
          },
          {
            "measured_time_usec": 979.09,
            "cycles_per_iteration": 13.2876553671,
            "total_cycles": 2149756.6112220003,
            "perf_counter_per_iteration": 41.9985474639,
            "total_perf_counter": 6794777,
            "num_iterations": 161786,
            "freq_early_kHz": 2195677.0,
            "freq_late_kHz": 2195677.0,
            "avg_freq_kHz": 2195677.0
          },
          {
            "measured_time_usec": 1005.47,
            "cycles_per_iteration": 13.6457934035,
            "total_cycles": 2207698.3315749997,
            "perf_counter_per_iteration": 42.0014525361,
            "total_perf_counter": 6795247,
            "num_iterations": 161786,
            "freq_early_kHz": 2195677.0,
            "freq_late_kHz": 2195677.0,
            "avg_freq_kHz": 2195677.0
          }
        ],
        "rt": 0.08912474662065506,
        "num_uops_increased_by": 0
      }
    },
    {
      "kind": "Experiment",
      "iseq": [
        "vmovapd xmmword ptr W:MEM(128), R:XMM0..15",
        "vpslld W:XMM0..15, R:XMM0..15, R:XMM0..15"
      ],
      "result": {
        "cycles": 1.999681217015,
        "TP": 39.9936243403,
        "num_uops": 3.0,
        "run_details": [
          {
            "measured_time_usec": 990.22,
            "cycles_per_iteration": 38.6518150038,
            "total_cycles": 2109229.5447560004,
            "perf_counter_per_iteration": 41.9956936045,
            "total_perf_counter": 2291705,
            "num_iterations": 54570,
            "freq_early_kHz": 2130068.0,
            "freq_late_kHz": 2130068.0,
            "avg_freq_kHz": 2130068.0
          },
          {
            "measured_time_usec": 998.99,
            "cycles_per_iteration": 38.9922309846,
            "total_cycles": 2127923.021524,
            "perf_counter_per_iteration": 42.0043061587,
            "total_perf_counter": 2292301,
            "num_iterations": 54573,
            "freq_early_kHz": 2130068.0,
            "freq_late_kHz": 2130068.0,
            "avg_freq_kHz": 2130068.0
          },
          {
            "measured_time_usec": 998.71,
            "cycles_per_iteration": 40.1476444226,
            "total_cycles": 2192181.828408,
            "perf_counter_per_iteration": 42.0043037928,
            "total_perf_counter": 2293561,
            "num_iterations": 54603,
            "freq_early_kHz": 2195009.0,
            "freq_late_kHz": 2195009.0,
            "avg_freq_kHz": 2195009.0
          },
          {
            "measured_time_usec": 994.09,
            "cycles_per_iteration": 39.9839715032,
            "total_cycles": 2182045.276846,
            "perf_counter_per_iteration": 42.0,
            "total_perf_counter": 2292066,
            "num_iterations": 54573,
            "freq_early_kHz": 2195009.0,
            "freq_late_kHz": 2195009.0,
            "avg_freq_kHz": 2195009.0
          },
          {
            "measured_time_usec": 990.14,
            "cycles_per_iteration": 39.83371939,
            "total_cycles": 2173845.5682719997,
            "perf_counter_per_iteration": 41.9956938413,
            "total_perf_counter": 2291831,
            "num_iterations": 54573,
            "freq_early_kHz": 2195502.0,
            "freq_late_kHz": 2195502.0,
            "avg_freq_kHz": 2195502.0
          },
          {
            "measured_time_usec": 999.08,
            "cycles_per_iteration": 40.1936621528,
            "total_cycles": 2193488.7246660003,
            "perf_counter_per_iteration": 42.0043061587,
            "total_perf_counter": 2292301,
            "num_iterations": 54573,
            "freq_early_kHz": 2195502.0,
            "freq_late_kHz": 2195502.0,
            "avg_freq_kHz": 2195502.0
          },
          {
            "measured_time_usec": 998.85,
            "cycles_per_iteration": 40.1854890062,
            "total_cycles": 2193042.691533,
            "perf_counter_per_iteration": 42.0043061587,
            "total_perf_counter": 2292301,
            "num_iterations": 54573,
            "freq_early_kHz": 2195561.0,
            "freq_late_kHz": 2195561.0,
            "avg_freq_kHz": 2195561.0
          },
          {
            "measured_time_usec": 994.08,
            "cycles_per_iteration": 39.9936243403,
            "total_cycles": 2182572.061124,
            "perf_counter_per_iteration": 42.0,
            "total_perf_counter": 2292066,
            "num_iterations": 54573,
            "freq_early_kHz": 2195561.0,
            "freq_late_kHz": 2195561.0,
            "avg_freq_kHz": 2195561.0
          },
          {
            "measured_time_usec": 990.17,
            "cycles_per_iteration": 39.8377788415,
            "total_cycles": 2174067.104719,
            "perf_counter_per_iteration": 41.9956938413,
            "total_perf_counter": 2291831,
            "num_iterations": 54573,
            "freq_early_kHz": 2195657.0,
            "freq_late_kHz": 2195657.0,
            "avg_freq_kHz": 2195657.0
          },
          {
            "measured_time_usec": 998.32,
            "cycles_per_iteration": 40.1438142145,
            "total_cycles": 2191972.687554,
            "perf_counter_per_iteration": 42.0043037928,
            "total_perf_counter": 2293561,
            "num_iterations": 54603,
            "freq_early_kHz": 2195657.0,
            "freq_late_kHz": 2195657.0,
            "avg_freq_kHz": 2195657.0
          },
          {
            "measured_time_usec": 998.03,
            "cycles_per_iteration": 40.1588507523,
            "total_cycles": 2191468.485552,
            "perf_counter_per_iteration": 42.0043063955,
            "total_perf_counter": 2292175,
            "num_iterations": 54570,
            "freq_early_kHz": 2195792.0,
            "freq_late_kHz": 2195792.0,
            "avg_freq_kHz": 2195792.0
          }
        ],
        "rt": 0.08997206389904022,
        "num_uops_increased_by": 1
      }
    },
    {
      "kind": "Experiment",
      "iseq": [
        "vminps W:XMM0..15, R:XMM0..15, R:XMM0..15",
        "vpaddsw W:XMM0..15, R:XMM0..15, R:XMM0..15"
      ],
      "result": {
        "cycles": 0.666596105281,
        "TP": 66.6596105281,
        "num_uops": 2.0,
        "run_details": [
          {
            "measured_time_usec": 1009.38,
            "cycles_per_iteration": 67.4612764978,
            "total_cycles": 2213471.943168,
            "perf_counter_per_iteration": 202.0071622322,
            "total_perf_counter": 6628057,
            "num_iterations": 32811,
            "freq_early_kHz": 2192896.0,
            "freq_late_kHz": 2192896.0,
            "avg_freq_kHz": 2192896.0
          },
          {
            "measured_time_usec": 996.47,
            "cycles_per_iteration": 66.575726599,
            "total_cycles": 2185148.498432,
            "perf_counter_per_iteration": 202.0,
            "total_perf_counter": 6630044,
            "num_iterations": 32822,
            "freq_early_kHz": 2192896.0,
            "freq_late_kHz": 2192896.0,
            "avg_freq_kHz": 2192896.0
          },
          {
            "measured_time_usec": 992.8,
            "cycles_per_iteration": 66.407588008,
            "total_cycles": 2179629.8536000005,
            "perf_counter_per_iteration": 201.9928401682,
            "total_perf_counter": 6629809,
            "num_iterations": 32822,
            "freq_early_kHz": 2195437.0,
            "freq_late_kHz": 2195437.0,
            "avg_freq_kHz": 2195437.0
          },
          {
            "measured_time_usec": 1000.31,
            "cycles_per_iteration": 66.9095913803,
            "total_cycles": 2196106.6082850005,
            "perf_counter_per_iteration": 202.0071598318,
            "total_perf_counter": 6630279,
            "num_iterations": 32822,
            "freq_early_kHz": 2195437.0,
            "freq_late_kHz": 2195437.0,
            "avg_freq_kHz": 2195437.0
          },
          {
            "measured_time_usec": 1009.32,
            "cycles_per_iteration": 67.5381977908,
            "total_cycles": 2216063.3459119997,
            "perf_counter_per_iteration": 202.0071620139,
            "total_perf_counter": 6628259,
            "num_iterations": 32812,
            "freq_early_kHz": 2195596.0,
            "freq_late_kHz": 2195596.0,
            "avg_freq_kHz": 2195596.0
          },
          {
            "measured_time_usec": 996.47,
            "cycles_per_iteration": 66.6578316533,
            "total_cycles": 2187843.3505240004,
            "perf_counter_per_iteration": 202.0,
            "total_perf_counter": 6630044,
            "num_iterations": 32822,
            "freq_early_kHz": 2195596.0,
            "freq_late_kHz": 2195596.0,
            "avg_freq_kHz": 2195596.0
          },
          {
            "measured_time_usec": 991.54,
            "cycles_per_iteration": 66.3222136133,
            "total_cycles": 2176827.695217,
            "perf_counter_per_iteration": 201.9928401682,
            "total_perf_counter": 6629809,
            "num_iterations": 32822,
            "freq_early_kHz": 2195403.0,
            "freq_late_kHz": 2195403.0,
            "avg_freq_kHz": 2195403.0
          },
          {
            "measured_time_usec": 1004.35,
            "cycles_per_iteration": 67.1793184224,
            "total_cycles": 2204959.5892590005,
            "perf_counter_per_iteration": 202.0071598318,
            "total_perf_counter": 6630279,
            "num_iterations": 32822,
            "freq_early_kHz": 2195403.0,
            "freq_late_kHz": 2195403.0,
            "avg_freq_kHz": 2195403.0
          },
          {
            "measured_time_usec": 996.47,
            "cycles_per_iteration": 66.6596105281,
            "total_cycles": 2187901.7367530004,
            "perf_counter_per_iteration": 202.0,
            "total_perf_counter": 6630044,
            "num_iterations": 32822,
            "freq_early_kHz": 2195659.0,
            "freq_late_kHz": 2195659.0,
            "avg_freq_kHz": 2195659.0
          },
          {
            "measured_time_usec": 993.66,
            "cycles_per_iteration": 66.4720342733,
            "total_cycles": 2181745.108917,
            "perf_counter_per_iteration": 201.9928401682,
            "total_perf_counter": 6629809,
            "num_iterations": 32822,
            "freq_early_kHz": 2195659.0,
            "freq_late_kHz": 2195659.0,
            "avg_freq_kHz": 2195659.0
          },
          {
            "measured_time_usec": 1000.32,
            "cycles_per_iteration": 66.9205064785,
            "total_cycles": 2196464.863636,
            "perf_counter_per_iteration": 202.0071598318,
            "total_perf_counter": 6630279,
            "num_iterations": 32822,
            "freq_early_kHz": 2195771.0,
            "freq_late_kHz": 2195771.0,
            "avg_freq_kHz": 2195771.0
          }
        ],
        "rt": 0.07059044018387794,
        "num_uops_increased_by": 0
      }
    },
    {
      "kind": "Experiment",
      "iseq": [
        "vaddps W:XMM0..15, R:XMM0..15, R:XMM0..15",
        "vminps W:XMM0..15, R:XMM0..15, R:XMM0..15"
      ],
      "result": {
        "cycles": 0.499919589614,
        "TP": 49.9919589614,
        "num_uops": 2.0,
        "run_details": [
          {
            "measured_time_usec": 995.04,
            "cycles_per_iteration": 49.9676340102,
            "total_cycles": 2183585.606244,
            "perf_counter_per_iteration": 202.0,
            "total_perf_counter": 8827400,
            "num_iterations": 43700,
            "freq_early_kHz": 2194479.0,
            "freq_late_kHz": 2194479.0,
            "avg_freq_kHz": 2194479.0
          },
          {
            "measured_time_usec": 990.83,
            "cycles_per_iteration": 49.7563212497,
            "total_cycles": 2174351.238612,
            "perf_counter_per_iteration": 201.9946224256,
            "total_perf_counter": 8827165,
            "num_iterations": 43700,
            "freq_early_kHz": 2194479.0,
            "freq_late_kHz": 2194479.0,
            "avg_freq_kHz": 2194479.0
          },
          {
            "measured_time_usec": 999.12,
            "cycles_per_iteration": 50.1789795024,
            "total_cycles": 2192821.404256,
            "perf_counter_per_iteration": 202.0053775744,
            "total_perf_counter": 8827635,
            "num_iterations": 43700,
            "freq_early_kHz": 2194744.0,
            "freq_late_kHz": 2194744.0,
            "avg_freq_kHz": 2194744.0
          },
          {
            "measured_time_usec": 999.02,
            "cycles_per_iteration": 50.173906982,
            "total_cycles": 2192599.7351120003,
            "perf_counter_per_iteration": 202.0053775744,
            "total_perf_counter": 8827635,
            "num_iterations": 43700,
            "freq_early_kHz": 2194744.0,
            "freq_late_kHz": 2194744.0,
            "avg_freq_kHz": 2194744.0
          },
          {
            "measured_time_usec": 995.04,
            "cycles_per_iteration": 49.9896931522,
            "total_cycles": 2184549.59075,
            "perf_counter_per_iteration": 202.0,
            "total_perf_counter": 8827400,
            "num_iterations": 43700,
            "freq_early_kHz": 2195450.0,
            "freq_late_kHz": 2195450.0,
            "avg_freq_kHz": 2195450.0
          },
          {
            "measured_time_usec": 991.54,
            "cycles_per_iteration": 49.814006913,
            "total_cycles": 2176872.1021,
            "perf_counter_per_iteration": 201.9946224256,
            "total_perf_counter": 8827165,
            "num_iterations": 43700,
            "freq_early_kHz": 2195450.0,
            "freq_late_kHz": 2195450.0,
            "avg_freq_kHz": 2195450.0
          },
          {
            "measured_time_usec": 999.83,
            "cycles_per_iteration": 50.2237209747,
            "total_cycles": 2194776.6065940005,
            "perf_counter_per_iteration": 202.0053775744,
            "total_perf_counter": 8827635,
            "num_iterations": 43700,
            "freq_early_kHz": 2195141.0,
            "freq_late_kHz": 2195141.0,
            "avg_freq_kHz": 2195141.0
          },
          {
            "measured_time_usec": 998.95,
            "cycles_per_iteration": 50.1771700923,
            "total_cycles": 2192842.687372967,
            "perf_counter_per_iteration": 202.0053773283,
            "total_perf_counter": 8828039,
            "num_iterations": 43702,
            "freq_early_kHz": 2195141.0,
            "freq_late_kHz": 2195141.0,
            "avg_freq_kHz": 2195141.0
          },
          {
            "measured_time_usec": 994.59,
            "cycles_per_iteration": 49.9919589614,
            "total_cycles": 2183698.759392,
            "perf_counter_per_iteration": 202.0,
            "total_perf_counter": 8823562,
            "num_iterations": 43681,
            "freq_early_kHz": 2195568.0,
            "freq_late_kHz": 2195568.0,
            "avg_freq_kHz": 2195568.0
          },
          {
            "measured_time_usec": 991.44,
            "cycles_per_iteration": 49.8117605931,
            "total_cycles": 2176773.93792,
            "perf_counter_per_iteration": 201.9946224256,
            "total_perf_counter": 8827165,
            "num_iterations": 43700,
            "freq_early_kHz": 2195568.0,
            "freq_late_kHz": 2195568.0,
            "avg_freq_kHz": 2195568.0
          },
          {
            "measured_time_usec": 998.43,
            "cycles_per_iteration": 50.16064795,
            "total_cycles": 2192020.315415,
